[{"icao": "03WI", "iata": "", "name": "Zink Airport", "city": "Berlin", "state": "Wisconsin", "country": "US", "elevation": 880, "lat": 44.0275001526, "lon": -88.880897522, "tz": "America/Chicago"},
    {"icao": "05AR", "iata": "", "name": "Ozark Skies Airpark", "city": "Kingston", "state": "Arkansas", "country": "US", "elevation": 1900, "lat": 36.000633, "lon": -93.57025, "tz": "America/Chicago"},
    {"icao": "05TE", "iata": "", "name": "Hilde-Griff Field", "city": "Georgetown", "state": "Texas", "country": "US", "elevation": 950, "lat": 30.7220993042, "lon": -97.7913970947, "tz": "America/Chicago"},
    {"icao": "07TS", "iata": "", "name": "Cross-Country Estates Airport", "city": "Georgetown", "state": "Texas", "country": "US", "elevation": 690, "lat": 30.625, "lon": -97.5727996826, "tz": "America/Chicago"},
    {"icao": "08CL", "iata": "", "name": "Kistler Ranch Airport", "city": "Jamestown", "state": "California", "country": "US", "elevation": 1025, "lat": 37.8596000671, "lon": -120.5540008545, "tz": "America/Los_Angeles"},
    {"icao": "09ID", "iata": "", "name": "Taylor Ranch Landing Area Airport", "city": "Moscow", "state": "Idaho", "country": "US", "elevation": 3835, "lat": 45.1039009094, "lon": -114.8550033569, "tz": "America/Boise"},
    {"icao": "0KS2", "iata": "", "name": "Kellie Mann Airfield", "city": "Ottawa", "state": "Kansas", "country": "US", "elevation": 1045, "lat": 38.5600013733, "lon": -95.30909729, "tz": "America/Chicago"},
    {"icao": "0KS3", "iata": "", "name": "Camp Chippewa Airport", "city": "Ottawa", "state": "Kansas", "country": "US", "elevation": 1120, "lat": 38.5666999817, "lon": -95.366897583, "tz": "America/Chicago"},
    {"icao": "0KS9", "iata": "", "name": "Lmn 120 Airport", "city": "Douglas", "state": "Kansas", "country": "US", "elevation": 1330, "lat": 37.5158996582, "lon": -96.9197998047, "tz": "America/Chicago"},
    {"icao": "0MT4", "iata": "", "name": "Kimp Airport", "city": "Hamilton", "state": "Montana", "country": "US", "elevation": 3510, "lat": 46.2785987854, "lon": -114.1409988403, "tz": "America/Denver"},
    {"icao": "0OR6", "iata": "", "name": "Rome Service Airport", "city": "Rome", "state": "Oregon", "country": "US", "elevation": 3387, "lat": 42.8339996338, "lon": -117.6289978027, "tz": "America/Boise"},
    {"icao": "0TA8", "iata": "", "name": "Womack Plantation Airport", "city": "Paris", "state": "Texas", "country": "US", "elevation": 410, "lat": 33.8487014771, "lon": -95.4072036743, "tz": "America/Chicago"},
    {"icao": "0XA7", "iata": "", "name": "Bar 3 Ranch Airport", "city": "Georgetown", "state": "Texas", "country": "US", "elevation": 744, "lat": 30.66270065, "lon": -97.62509918, "tz": "America/Chicago"},
    {"icao": "12TN", "iata": "", "name": "Riley Creek Airport", "city": "Kingston", "state": "Tennessee", "country": "US", "elevation": 750, "lat": 35.8236999512, "lon": -84.5388031006, "tz": "America/New_York"},
    {"icao": "13ID", "iata": "", "name": "Silva Ranch Airport", "city": "Stanley", "state": "Idaho", "country": "US", "elevation": 6400, "lat": 44.2666015625, "lon": -115.0009994507, "tz": "America/Boise"},
    {"icao": "14KY", "iata": "", "name": "Blue Haven Farm Airport", "city": "Paris", "state": "Kentucky", "country": "US", "elevation": 985, "lat": 38.1736984253, "lon": -84.3683013916, "tz": "America/New_York"},
    {"icao": "15KY", "iata": "", "name": "Brennan Farm Airport", "city": "Paris", "state": "Kentucky", "country": "US", "elevation": 910, "lat": 38.1570014954, "lon": -84.3015975952, "tz": "America/New_York"},
    {"icao": "17XS", "iata": "", "name": "Quahadi Ranch Airport", "city": "Dublin", "state": "Texas", "country": "US", "elevation": 1422, "lat": 32.1777992249, "lon": -98.4349975586, "tz": "America/Chicago"},
    {"icao": "1MT6", "iata": "", "name": "Bobcat Field", "city": "Philipsburg", "state": "Montana", "country": "US", "elevation": 4824, "lat": 46.3568992615, "lon": -113.5100021362, "tz": "America/Denver"},
    {"icao": "1NE5", "iata": "", "name": "Sibbernsen Airport", "city": "Washington", "state": "Nebraska", "country": "US", "elevation": 1280, "lat": 41.4061012268, "lon": -96.2855987549, "tz": "America/Chicago"},
    {"icao": "1TX6", "iata": "", "name": "Muxworthy Airport", "city": "Hamilton", "state": "Texas", "country": "US", "elevation": 1210, "lat": 31.6984996796, "lon": -98.0963973999, "tz": "America/Chicago"},
    {"icao": "22LL", "iata": "", "name": "Pike's Airport", "city": "Ottawa", "state": "Illinois", "country": "US", "elevation": 600, "lat": 41.3134002686, "lon": -88.8606033325, "tz": "America/Chicago"},
    {"icao": "23GE", "iata": "", "name": "Lt Landing Airport", "city": "Dublin", "state": "Georgia", "country": "US", "elevation": 286, "lat": 32.383056, "lon": -83.1, "tz": "America/New_York"},
    {"icao": "23IS", "iata": "", "name": "Clark Airport", "city": "Plymouth", "state": "Illinois", "country": "US", "elevation": 570, "lat": 40.3259010315, "lon": -90.8275985718, "tz": "America/Chicago"},
    {"icao": "29CN", "iata": "", "name": "Dubey Airport", "city": "Georgetown", "state": "California", "country": "US", "elevation": 2400, "lat": 38.849899292, "lon": -120.8339996338, "tz": "America/Los_Angeles"},
    {"icao": "2TN7", "iata": "", "name": "Wolf Creek Airport", "city": "Kingston", "state": "Tennessee", "country": "US", "elevation": 890, "lat": 35.8044013977, "lon": -84.415802002, "tz": "America/New_York"},
    {"icao": "2VG8", "iata": "", "name": "Folly Neck Airport", "city": "Warsaw", "state": "Virginia", "country": "US", "elevation": 12, "lat": 37.8722000122, "lon": -76.7311019897, "tz": "America/New_York"},
    {"icao": "2XS3", "iata": "", "name": "Glad Oaks Airport", "city": "Athens", "state": "Texas", "country": "US", "elevation": 487, "lat": 32.0167999268, "lon": -95.7002029419, "tz": "America/Chicago"},
    {"icao": "30TA", "iata": "", "name": "Tri-Modal Air Park", "city": "Georgetown", "state": "Texas", "country": "US", "elevation": 812, "lat": 30.5918998718, "lon": -97.7225036621, "tz": "America/Chicago"},
    {"icao": "31KY", "iata": "", "name": "Wild Blue Airport", "city": "Paris", "state": "Kentucky", "country": "US", "elevation": 890, "lat": 38.1105995178, "lon": -84.3221969604, "tz": "America/New_York"},
    {"icao": "31WN", "iata": "", "name": "Berlin Field", "city": "Berlin", "state": "Wisconsin", "country": "US", "elevation": 773, "lat": 43.9916000366, "lon": -88.962600708, "tz": "America/Chicago"},
    {"icao": "39LL", "iata": "", "name": "Sullivan Airport", "city": "Hamilton", "state": "Illinois", "country": "US", "elevation": 635, "lat": 40.401389, "lon": -91.303056, "tz": "America/Chicago"},
    {"icao": "39TA", "iata": "", "name": "Flying Tigers Airport", "city": "Paris", "state": "Texas", "country": "US", "elevation": 588, "lat": 33.6525993347, "lon": -95.6557998657, "tz": "America/Chicago"},
    {"icao": "3KY2", "iata": "", "name": "Chesnut Knolls Airport", "city": "London", "state": "Kentucky", "country": "US", "elevation": 1265, "lat": 37.1511001587, "lon": -84.2574996948, "tz": "America/New_York"},
    {"icao": "3NK4", "iata": "", "name": "Laska Airport", "city": "Jamestown", "state": "New York", "country": "US", "elevation": 1480, "lat": 42.0278015137, "lon": -79.1941986084, "tz": "America/New_York"},
    {"icao": "3VA4", "iata": "", "name": "Shandy Hall Farm Airport", "city": "Warsaw", "state": "Virginia", "country": "US", "elevation": 10, "lat": 37.8576011658, "lon": -76.7358016968, "tz": "America/New_York"},
    {"icao": "40IN", "iata": "", "name": "Cherry Hill Airport", "city": "Freetown", "state": "Indiana", "country": "US", "elevation": 745, "lat": 39.0741996765, "lon": -86.1541976929, "tz": "America/Indiana/Indianapolis"},
    {"icao": "42TE", "iata": "", "name": "Ball Airport", "city": "Victoria", "state": "Texas", "country": "US", "elevation": 124, "lat": 28.8878002167, "lon": -97.0211029053, "tz": "America/Chicago"},
    {"icao": "42TN", "iata": "", "name": "Oliver Landing Airport", "city": "Paris", "state": "Tennessee", "country": "US", "elevation": 475, "lat": 36.411944, "lon": -88.265556, "tz": "America/Chicago"},
    {"icao": "44WY", "iata": "", "name": "Underwood Airport", "city": "Douglas", "state": "Wyoming", "country": "US", "elevation": 4863, "lat": 42.8511, "lon": -105.496217, "tz": "America/Denver"},
    {"icao": "46IN", "iata": "", "name": "Ames Field", "city": "Plymouth", "state": "Indiana", "country": "US", "elevation": 825, "lat": 41.3811988831, "lon": -86.2228012085, "tz": "America/Indiana/Indianapolis"},
    {"icao": "46NE", "iata": "", "name": "Jantzen Airport", "city": "Madrid", "state": "Nebraska", "country": "US", "elevation": 3375, "lat": 40.8964004517, "lon": -101.5049972534, "tz": "America/Denver"},
    {"icao": "47MO", "iata": "", "name": "Cliff Scott Airport", "city": "Hamilton", "state": "Missouri", "country": "US", "elevation": 1000, "lat": 39.7402992249, "lon": -93.9905014038, "tz": "America/Chicago"},
    {"icao": "4CO2", "iata": "", "name": "Owl Canyon Gliderport", "city": "Wellington", "state": "Colorado", "country": "US", "elevation": 5545, "lat": 40.8046989441, "lon": -104.9850006104, "tz": "America/Denver"},
    {"icao": "4MD1", "iata": "", "name": "Bunting's Field", "city": "Berlin", "state": "Maryland", "country": "US", "elevation": 5, "lat": 38.3681983948, "lon": -75.2306976318, "tz": "America/New_York"},
    {"icao": "4MD6", "iata": "", "name": "Moxley's Airport", "city": "Dublin", "state": "Maryland", "country": "US", "elevation": 410, "lat": 39.625, "lon": -76.2624969482, "tz": "America/New_York"},
    {"icao": "4MT1", "iata": "", "name": "Kreikemeier Airport", "city": "Belgrade", "state": "Montana", "country": "US", "elevation": 4360, "lat": 45.8207015991, "lon": -111.1449966431, "tz": "America/Denver"},
    {"icao": "4NE0", "iata": "", "name": "Regier Brothers Airport", "city": "Madrid", "state": "Nebraska", "country": "US", "elevation": 3363, "lat": 40.9160995483, "lon": -101.5599975586, "tz": "America/Denver"},
    {"icao": "4NK8", "iata": "", "name": "Longwell Airport", "city": "Amsterdam", "state": "New York", "country": "US", "elevation": 800, "lat": 43.0009002686, "lon": -74.1871032715, "tz": "America/New_York"},
    {"icao": "4OK7", "iata": "", "name": "Flying A Ranch Airport", "city": "Washington", "state": "Oklahoma", "country": "US", "elevation": 1165, "lat": 35.0912017822, "lon": -97.5009002686, "tz": "America/Chicago"},
    {"icao": "4TN3", "iata": "", "name": "Hawks Nest Airport", "city": "Moscow", "state": "Tennessee", "country": "US", "elevation": 410, "lat": 35.1183013916, "lon": -89.3677978516, "tz": "America/Chicago"},
    {"icao": "50KY", "iata": "", "name": "Zanzibar Farm Airport", "city": "Paris", "state": "Kentucky", "country": "US", "elevation": 915, "lat": 38.1297988892, "lon": -84.3302001953, "tz": "America/New_York"},
    {"icao": "50TN", "iata": "", "name": "Paris Landing Airpark", "city": "Paris", "state": "Tennessee", "country": "US", "elevation": 400, "lat": 36.352339, "lon": -88.350492, "tz": "America/Chicago"},
    {"icao": "51OH", "iata": "", "name": "Agner Airport", "city": "Ottawa", "state": "Ohio", "country": "US", "elevation": 740, "lat": 41.0703010559, "lon": -84.0863037109, "tz": "America/New_York"},
    {"icao": "52KY", "iata": "", "name": "Air Castle Airport", "city": "Paris", "state": "Kentucky", "country": "US", "elevation": 900, "lat": 38.1180992126, "lon": -84.3023986816, "tz": "America/New_York"},
    {"icao": "52WI", "iata": "", "name": "John'S Field", "city": "Athens", "state": "Wisconsin", "country": "US", "elevation": 1450, "lat": 45.159644, "lon": -90.056883, "tz": "America/Chicago"},
    {"icao": "55NY", "iata": "", "name": "Ridgeview Airport", "city": "Jamestown", "state": "New York", "country": "US", "elevation": 1645, "lat": 42.0820007324, "lon": -79.3123016357, "tz": "America/New_York"},
    {"icao": "57II", "iata": "", "name": "Reimer Aerodrome", "city": "Jamestown", "state": "Indiana", "country": "US", "elevation": 930, "lat": 39.9641990662, "lon": -86.5674972534, "tz": "America/Indiana/Indianapolis"},
    {"icao": "5IN5", "iata": "", "name": "Berkey Field", "city": "Warsaw", "state": "Indiana", "country": "US", "elevation": 858, "lat": 41.2877998352, "lon": -85.9005966187, "tz": "America/Indiana/Indianapolis"},
    {"icao": "5NY4", "iata": "", "name": "Stanwix Heights Airport", "city": "Rome", "state": "New York", "country": "US", "elevation": 610, "lat": 43.1576004028, "lon": -75.4307022095, "tz": "America/New_York"},
    {"icao": "5TA8", "iata": "", "name": "Deer Meadow Ranch Airport", "city": "Athens", "state": "Texas", "country": "US", "elevation": 520, "lat": 32.0133018494, "lon": -95.9282989502, "tz": "America/Chicago"},
    {"icao": "63ND", "iata": "", "name": "Moellenkamp Airport", "city": "Lisbon", "state": "North Dakota", "country": "US", "elevation": 1240, "lat": 46.3652000427, "lon": -97.7282028198, "tz": "America/Chicago"},
    {"icao": "6CL9", "iata": "", "name": "Peoria Airport", "city": "Jamestown", "state": "California", "country": "US", "elevation": 830, "lat": 37.9216995239, "lon": -120.5149993896, "tz": "America/Los_Angeles"},
    {"icao": "6CO1", "iata": "", "name": "Burnham Field", "city": "Wellington", "state": "Colorado", "country": "US", "elevation": 5615, "lat": 40.7813987732, "lon": -104.9169998169, "tz": "America/Denver"},
    {"icao": "6IN6", "iata": "", "name": "Mershon Airport", "city": "Monrovia", "state": "Indiana", "country": "US", "elevation": 870, "lat": 39.5489006042, "lon": -86.4766998291, "tz": "America/Indiana/Indianapolis"},
    {"icao": "6MO8", "iata": "", "name": "Brazeale Farm Airport", "city": "Paris", "state": "Missouri", "country": "US", "elevation": 780, "lat": 39.4833984375, "lon": -92.0668029785, "tz": "America/Chicago"},
    {"icao": "6NJ1", "iata": "", "name": "Vliet Airport", "city": "Washington", "state": "New Jersey", "country": "US", "elevation": 460, "lat": 40.740398407, "lon": -74.9568023682, "tz": "America/New_York"},
    {"icao": "6NK1", "iata": "", "name": "Casey's Airport", "city": "Warsaw", "state": "New York", "country": "US", "elevation": 1600, "lat": 42.756401062, "lon": -78.1755981445, "tz": "America/New_York"},
    {"icao": "6PA6", "iata": "", "name": "Air Haven Airport", "city": "Moscow", "state": "Pennsylvania", "country": "US", "elevation": 1550, "lat": 41.3501014709, "lon": -75.483001709, "tz": "America/New_York"},
    {"icao": "6WN5", "iata": "", "name": "Airwolfe Airport", "city": "Stockholm", "state": "Wisconsin", "country": "US", "elevation": 1130, "lat": 44.4998016357, "lon": -92.1987991333, "tz": "America/Chicago"},
    {"icao": "75FL", "iata": "", "name": "Sandy Creek Airpark", "city": "Panama City", "state": "Florida", "country": "US", "elevation": 13, "lat": 30.102399826, "lon": -85.4624023438, "tz": "America/New_York"},
    {"icao": "76FD", "iata": "", "name": "Peavy Farms Airport", "city": "Havana", "state": "Florida", "country": "US", "elevation": 270, "lat": 30.6704998016, "lon": -84.414100647, "tz": "America/New_York"},
    {"icao": "77MI", "iata": "", "name": "David's Airport", "city": "Athens", "state": "Michigan", "country": "US", "elevation": 887, "lat": 42.0652999878, "lon": -85.2416000366, "tz": "America/Detroit"},
    {"icao": "79OH", "iata": "", "name": "Smith-Stewart Field", "city": "Vienna", "state": "Ohio", "country": "US", "elevation": 1092, "lat": 41.2098007202, "lon": -80.6830978394, "tz": "America/New_York"},
    {"icao": "7IN2", "iata": "", "name": "Flying Crown Airport", "city": "Hamilton", "state": "Indiana", "country": "US", "elevation": 920, "lat": 41.5013999939, "lon": -84.8783035278, "tz": "America/Indiana/Indianapolis"},
    {"icao": "7NA3", "iata": "", "name": "Hiam Private Airport", "city": "Lisbon", "state": "North Dakota", "country": "US", "elevation": 1251, "lat": 46.3499984741, "lon": -97.6942977905, "tz": "America/Chicago"},
    {"icao": "7WI8", "iata": "", "name": "Crispy Cedars Airport", "city": "Brussels", "state": "Wisconsin", "country": "US", "elevation": 700, "lat": 44.7806015015, "lon": -87.6024017334, "tz": "America/Chicago"},
    {"icao": "81WI", "iata": "", "name": "Gunner Field", "city": "Athens", "state": "Wisconsin", "country": "US", "elevation": 1465, "lat": 45.0786018372, "lon": -90.1764984131, "tz": "America/Chicago"},
    {"icao": "8GA7", "iata": "", "name": "Etowah Bend Gliderport", "city": "Kingston", "state": "Georgia", "country": "US", "elevation": 620, "lat": 34.2019996643, "lon": -84.9772033691, "tz": "America/New_York"},
    {"icao": "8KS2", "iata": "", "name": "King Ranch Airport", "city": "Hamilton", "state": "Kansas", "country": "US", "elevation": 1160, "lat": 37.9388999939, "lon": -96.230796814, "tz": "America/Chicago"},
    {"icao": "8TA9", "iata": "", "name": "Star Dusters Airport", "city": "Washington", "state": "Louisiana", "country": "US", "elevation": 37, "lat": 30.635799408, "lon": -92.0584030151, "tz": "America/Chicago"},
    {"icao": "92IL", "iata": "", "name": "Hunter Raffety Elevators Inc Airport", "city": "Cairo", "state": "Illinois", "country": "US", "elevation": 323, "lat": 37.038898468, "lon": -89.3208999634, "tz": "America/Chicago"},
    {"icao": "95IS", "iata": "", "name": "Jan Knipe Airport", "city": "Warsaw", "state": "Illinois", "country": "US", "elevation": 645, "lat": 40.3706016541, "lon": -91.3889007568, "tz": "America/Chicago"},
    {"icao": "99MT", "iata": "", "name": "Fox Field", "city": "Hamilton", "state": "Montana", "country": "US", "elevation": 3750, "lat": 46.0974998474, "lon": -114.1780014038, "tz": "America/Denver"},
    {"icao": "9FL2", "iata": "", "name": "Saranac Farm Airport", "city": "Havana", "state": "Florida", "country": "US", "elevation": 230, "lat": 30.6525001526, "lon": -84.4747009277, "tz": "America/New_York"},
    {"icao": "9MT9", "iata": "", "name": "Mc Kenna Airport", "city": "Belgrade", "state": "Montana", "country": "US", "elevation": 4450, "lat": 45.7907981873, "lon": -111.125, "tz": "America/Denver"},
    {"icao": "AGGH", "iata": "HIR", "name": "Honiara International Airport", "city": "Honiara", "state": "Guadalcanal", "country": "SB", "elevation": 28, "lat": -9.4280004501, "lon": 160.0549926758, "tz": "Pacific/Guadalcanal"},
    {"icao": "AR19", "iata": "", "name": "Wesson-Davis Field", "city": "Paris", "state": "Arkansas", "country": "US", "elevation": 570, "lat": 35.2128982544, "lon": -93.7520980835, "tz": "America/Chicago"},
    {"icao": "AYPY", "iata": "POM", "name": "Port Moresby Jacksons International Airport", "city": "Port Moresby", "state": "National Capital", "country": "PG", "elevation": 146, "lat": -9.4433803558, "lon": 147.2200012207, "tz": "Pacific/Port_Moresby"},
    {"icao": "AZ17", "iata": "", "name": "Circle H Ranch Airport", "city": "Douglas", "state": "Arizona", "country": "US", "elevation": 4680, "lat": 31.502199173, "lon": -109.3909988403, "tz": "America/Phoenix"},
    {"icao": "BGGH", "iata": "GOH", "name": "Godthaab / Nuuk Airport", "city": "Nuuk", "state": "", "country": "GL", "elevation": 283, "lat": 64.19090271, "lon": -51.6781005859, "tz": "America/Godthab"},
    {"icao": "BIKF", "iata": "KEF", "name": "Keflavik International Airport", "city": "Reykjavik", "state": "Southern Peninsula", "country": "IS", "elevation": 171, "lat": 63.9850006104, "lon": -22.6056003571, "tz": "Atlantic/Reykjavik"},
    {"icao": "BIRK", "iata": "RKV", "name": "Reykjavik Airport", "city": "Reykjavik", "state": "Capital Region", "country": "IS", "elevation": 48, "lat": 64.1299972534, "lon": -21.9405994415, "tz": "Atlantic/Reykjavik"},
    {"icao": "CCW4", "iata": "", "name": "Stanley Airport", "city": "Stanley", "state": "Nova Scotia", "country": "CA", "elevation": 95, "lat": 45.1006011963, "lon": -63.9206008911, "tz": "America/Halifax"},
    {"icao": "CLC2", "iata": "", "name": "London / Chapeskie Field", "city": "London", "state": "Ontario", "country": "CA", "elevation": 930, "lat": 43.0682983398, "lon": -81.1256027222, "tz": "America/Toronto"},
    {"icao": "CPD4", "iata": "", "name": "Brussels (Armstrong Field) Airport", "city": "Brussels", "state": "Ontario", "country": "CA", "elevation": 1100, "lat": 43.75, "lon": -81.2332992554, "tz": "America/Toronto"},
    {"icao": "CSF7", "iata": "", "name": "Ottawa / Casselman (Shea Field)", "city": "Ottawa", "state": "Ontario", "country": "CA", "elevation": 216, "lat": 45.299675051, "lon": -75.1715040207, "tz": "America/Toronto"},
    {"icao": "CT66", "iata": "", "name": "Long View Landing Airport", "city": "Washington", "state": "Connecticut", "country": "US", "elevation": 940, "lat": 41.6668014526, "lon": -73.2828979492, "tz": "America/New_York"},
    {"icao": "CYGK", "iata": "YGK", "name": "Kingston Norman Rogers Airport", "city": "Kingston", "state": "Ontario", "country": "CA", "elevation": 305, "lat": 44.2252998352, "lon": -76.5969009399, "tz": "America/Toronto"},
    {"icao": "CYHM", "iata": "YHM", "name": "John C. Munro Hamilton International Airport", "city": "Hamilton", "state": "Ontario", "country": "CA", "elevation": 780, "lat": 43.1735992432, "lon": -79.9349975586, "tz": "America/Toronto"},
    {"icao": "CYOW", "iata": "YOW", "name": "Ottawa Macdonald-Cartier International Airport", "city": "Ottawa", "state": "Ontario", "country": "CA", "elevation": 374, "lat": 45.3224983215, "lon": -75.6691970825, "tz": "America/Toronto"},
    {"icao": "CYRO", "iata": "YRO", "name": "Ottawa / Rockcliffe Airport", "city": "Ottawa", "state": "Ontario", "country": "CA", "elevation": 188, "lat": 45.4603004456, "lon": -75.6461029053, "tz": "America/Toronto"},
    {"icao": "CYXU", "iata": "YXU", "name": "London Airport", "city": "London", "state": "Ontario", "country": "CA", "elevation": 912, "lat": 43.0355987549, "lon": -81.1539001465, "tz": "America/Toronto"},
    {"icao": "CYYJ", "iata": "YYJ", "name": "Victoria International Airport", "city": "Victoria", "state": "British-Columbia", "country": "CA", "elevation": 63, "lat": 48.646900177, "lon": -123.4260025024, "tz": "America/Vancouver"},
    {"icao": "DAAG", "iata": "ALG", "name": "Houari Boumediene Airport", "city": "Algiers", "state": "Algiers", "country": "DZ", "elevation": 82, "lat": 36.6910018921, "lon": 3.2154099941, "tz": "Africa/Algiers"},
    {"icao": "DE49", "iata": "", "name": "Josephs Airport", "city": "Georgetown", "state": "Delaware", "country": "US", "elevation": 42, "lat": 38.6375999451, "lon": -75.3552017212, "tz": "America/New_York"},
    {"icao": "DFFD", "iata": "OUA", "name": "Ouagadougou Airport", "city": "Ouagadougou", "state": "", "country": "BF", "elevation": 1037, "lat": 12.3531999588, "lon": -1.5124200583, "tz": "Africa/Ouagadougou"},
    {"icao": "DGAA", "iata": "ACC", "name": "Kotoka International Airport", "city": "Accra", "state": "", "country": "GH", "elevation": 205, "lat": 5.6051898003, "lon": -0.1667860001, "tz": "Africa/Accra"},
    {"icao": "DIYO", "iata": "ASK", "name": "Yamoussoukro Airport", "city": "Yamoussoukro", "state": "Yamoussoukro-Autonomous-District", "country": "CI", "elevation": 699, "lat": 6.9031701088, "lon": -5.3655800819, "tz": "Africa/Abidjan"},
    {"icao": "DNAA", "iata": "ABV", "name": "Nnamdi Azikiwe International Airport", "city": "Abuja", "state": "FCT", "country": "NG", "elevation": 1123, "lat": 9.0067901611, "lon": 7.2631697655, "tz": "Africa/Lagos"},
    {"icao": "DRRN", "iata": "NIM", "name": "Diori Hamani International Airport", "city": "Niamey", "state": "Niamey", "country": "NE", "elevation": 732, "lat": 13.4814996719, "lon": 2.1836099625, "tz": "Africa/Niamey"},
    {"icao": "DTTA", "iata": "TUN", "name": "Tunis Carthage International Airport", "city": "Tunis", "state": "Tunis", "country": "TN", "elevation": 22, "lat": 36.8510017395, "lon": 10.2271995544, "tz": "Africa/Tunis"},
    {"icao": "DXXX", "iata": "LFW", "name": "Lome-Tokoin Airport", "city": "Lome", "state": "Maritime", "country": "TG", "elevation": 72, "lat": 6.1656098366, "lon": 1.2545100451, "tz": "Africa/Lome"},
    {"icao": "EBBR", "iata": "BRU", "name": "Brussels Airport", "city": "Brussels", "state": "Flanders", "country": "BE", "elevation": 184, "lat": 50.9014015198, "lon": 4.4844398499, "tz": "Europe/Brussels"},
    {"icao": "EBCI", "iata": "CRL", "name": "Brussels South Charleroi Airport", "city": "Brussels", "state": "Wallonia", "country": "BE", "elevation": 614, "lat": 50.4592018127, "lon": 4.4538202286, "tz": "Europe/Brussels"},
    {"icao": "EDDB", "iata": "SXF", "name": "Berlin-Schonefeld International Airport", "city": "Berlin", "state": "Brandenburg", "country": "DE", "elevation": 157, "lat": 52.3800010681, "lon": 13.5225000381, "tz": "Europe/Berlin"},
    {"icao": "EDDI", "iata": "THF", "name": "Berlin Tempelhof Airport", "city": "Berlin", "state": "Berlin", "country": "DE", "elevation": 164, "lat": 52.473611, "lon": 13.401667, "tz": "Europe/Berlin"},
    {"icao": "EDDT", "iata": "TXL", "name": "Berlin-Tegel International Airport", "city": "Berlin", "state": "Berlin", "country": "DE", "elevation": 122, "lat": 52.5597000122, "lon": 13.2876996994, "tz": "Europe/Berlin"},
    {"icao": "EETN", "iata": "TLL", "name": "Tallinn Airport", "city": "Tallinn", "state": "Harjumaa", "country": "EE", "elevation": 131, "lat": 59.4132995605, "lon": 24.8327999115, "tz": "Europe/Tallinn"},
    {"icao": "EFHF", "iata": "HEM", "name": "Helsinki Malmi Airport", "city": "Helsinki", "state": "Uusimaa", "country": "FI", "elevation": 57, "lat": 60.2546005249, "lon": 25.0428009033, "tz": "Europe/Helsinki"},
    {"icao": "EFHK", "iata": "HEL", "name": "Helsinki Vantaa Airport", "city": "Helsinki", "state": "Uusimaa", "country": "FI", "elevation": 179, "lat": 60.317199707, "lon": 24.963300705, "tz": "Europe/Helsinki"},
    {"icao": "EGGW", "iata": "LTN", "name": "London Luton Airport", "city": "London", "state": "England", "country": "GB", "elevation": 526, "lat": 51.8746986389, "lon": -0.3683330119, "tz": "Europe/London"},
    {"icao": "EGHD", "iata": "PLH", "name": "Plymouth City Airport", "city": "Plymouth", "state": "England", "country": "GB", "elevation": 476, "lat": 50.4227981567, "lon": -4.1058301926, "tz": "Europe/London"},
    {"icao": "EGJB", "iata": "GCI", "name": "Guernsey Airport", "city": "Saint Peter Port", "state": "Forest", "country": "GG", "elevation": 336, "lat": 49.4350013733, "lon": -2.6019699574, "tz": "Europe/Guernsey"},
    {"icao": "EGJJ", "iata": "JER", "name": "Jersey Airport", "city": "Saint Helier", "state": "St-Peter", "country": "JE", "elevation": 277, "lat": 49.207901001, "lon": -2.1955099106, "tz": "Europe/Jersey"},
    {"icao": "EGKB", "iata": "BQH", "name": "London Biggin Hill Airport", "city": "London", "state": "England", "country": "GB", "elevation": 598, "lat": 51.3307991028, "lon": 0.0324999988, "tz": "Europe/London"},
    {"icao": "EGKK", "iata": "LGW", "name": "London Gatwick Airport", "city": "London", "state": "England", "country": "GB", "elevation": 202, "lat": 51.1481018066, "lon": -0.1902779937, "tz": "Europe/London"},
    {"icao": "EGLC", "iata": "LCY", "name": "London City Airport", "city": "London", "state": "England", "country": "GB", "elevation": 19, "lat": 51.5052986145, "lon": 0.0552779995, "tz": "Europe/London"},
    {"icao": "EGLL", "iata": "LHR", "name": "London Heathrow Airport", "city": "London", "state": "England", "country": "GB", "elevation": 83, "lat": 51.4706001282, "lon": -0.4619410038, "tz": "Europe/London"},
    {"icao": "EGSS", "iata": "STN", "name": "London Stansted Airport", "city": "London", "state": "England", "country": "GB", "elevation": 348, "lat": 51.8849983215, "lon": 0.2349999994, "tz": "Europe/London"},
    {"icao": "EGWU", "iata": "NHT", "name": "RAF Northolt", "city": "London", "state": "England", "country": "GB", "elevation": 124, "lat": 51.5530014038, "lon": -0.418166995, "tz": "Europe/London"},
    {"icao": "EHAM", "iata": "AMS", "name": "Amsterdam Airport Schiphol", "city": "Amsterdam", "state": "North-Holland", "country": "NL", "elevation": -11, "lat": 52.3086013794, "lon": 4.7638897896, "tz": "Europe/Amsterdam"},
    {"icao": "EIDW", "iata": "DUB", "name": "Dublin Airport", "city": "Dublin", "state": "Leinster", "country": "IE", "elevation": 242, "lat": 53.4212989807, "lon": -6.270070076, "tz": "Europe/Dublin"},
    {"icao": "EKCH", "iata": "CPH", "name": "Copenhagen Kastrup Airport", "city": "Copenhagen", "state": "Capital-Region", "country": "DK", "elevation": 17, "lat": 55.6179008484, "lon": 12.6560001373, "tz": "Europe/Copenhagen"},
    {"icao": "EKRK", "iata": "RKE", "name": "Copenhagen Roskilde Airport", "city": "Copenhagen", "state": "Zealand", "country": "DK", "elevation": 146, "lat": 55.5856018066, "lon": 12.1314001083, "tz": "Europe/Copenhagen"},
    {"icao": "ELLX", "iata": "LUX", "name": "Luxembourg-Findel International Airport", "city": "Luxembourg", "state": "Luxembourg", "country": "LU", "elevation": 1234, "lat": 49.6265983582, "lon": 6.211520195, "tz": "Europe/Luxembourg"},
    {"icao": "ENGM", "iata": "OSL", "name": "Oslo Gardermoen Airport", "city": "Oslo", "state": "Akershus", "country": "NO", "elevation": 681, "lat": 60.193901062, "lon": 11.100399971, "tz": "Europe/Oslo"},
    {"icao": "ENSB", "iata": "LYR", "name": "Svalbard Airport Longyear", "city": "Longyearbyen", "state": "Svalbard", "country": "NO", "elevation": 88, "lat": 78.2461013794, "lon": 15.4656000137, "tz": "Arctic/Longyearbyen"},
    {"icao": "EPMO", "iata": "", "name": "Warsaw Modlin Airport", "city": "Warsaw", "state": "Mazovia", "country": "PL", "elevation": 341, "lat": 52.4510993958, "lon": 20.6518001556, "tz": "Europe/Warsaw"},
    {"icao": "EPWA", "iata": "WAW", "name": "Warsaw Chopin Airport", "city": "Warsaw", "state": "Mazovia", "country": "PL", "elevation": 362, "lat": 52.1656990051, "lon": 20.9671001434, "tz": "Europe/Warsaw"},
    {"icao": "ESSA", "iata": "ARN", "name": "Stockholm-Arlanda Airport", "city": "Stockholm", "state": "Stockholm", "country": "SE", "elevation": 137, "lat": 59.6519012451, "lon": 17.9186000824, "tz": "Europe/Stockholm"},
    {"icao": "ESSB", "iata": "BMA", "name": "Stockholm-Bromma Airport", "city": "Stockholm", "state": "Stockholm", "country": "SE", "elevation": 47, "lat": 59.3544006348, "lon": 17.9416999817, "tz": "Europe/Stockholm"},
    {"icao": "ESSE", "iata": "", "name": "Ska-Edeby Airport", "city": "Stockholm", "state": "Stockholm", "country": "SE", "elevation": 0, "lat": 59.3451004028, "lon": 17.7404994965, "tz": "Europe/Stockholm"},
    {"icao": "EVRA", "iata": "RIX", "name": "Riga International Airport", "city": "Riga", "state": "Marupe", "country": "LV", "elevation": 36, "lat": 56.9235992432, "lon": 23.9710998535, "tz": "Europe/Riga"},
    {"icao": "EVRC", "iata": "", "name": "Rumbula Air Base", "city": "Riga", "state": "Riga", "country": "LV", "elevation": 26, "lat": 56.8833007812, "lon": 24.2266998291, "tz": "Europe/Riga"},
    {"icao": "EVRS", "iata": "", "name": "Spilve Aerodrome", "city": "Riga", "state": "Riga", "country": "LV", "elevation": 3, "lat": 56.9911003113, "lon": 24.0750007629, "tz": "Europe/Riga"},
    {"icao": "EYVI", "iata": "VNO", "name": "Vilnius International Airport", "city": "Vilnius", "state": "Vilnius", "country": "LT", "elevation": 646, "lat": 54.6341018677, "lon": 25.2858009338, "tz": "Europe/Vilnius"},
    {"icao": "FA26", "iata": "", "name": "Dogwood Farm Airport", "city": "Havana", "state": "Florida", "country": "US", "elevation": 200, "lat": 30.5372009277, "lon": -84.4518966675, "tz": "America/New_York"},
    {"icao": "FAAM", "iata": "", "name": "Amsterdam Airport", "city": "Amsterdam", "state": "Mpumalanga", "country": "ZA", "elevation": 4310, "lat": -26.6333332062, "lon": 30.6000003815, "tz": "Africa/Johannesburg"},
    {"icao": "FASK", "iata": "", "name": "Swartkop Air Force Base", "city": "Pretoria", "state": "Gauteng", "country": "ZA", "elevation": 4780, "lat": -25.8097000122, "lon": 28.1646003723, "tz": "Africa/Johannesburg"},
    {"icao": "FAWB", "iata": "PRY", "name": "Wonderboom Airport", "city": "Pretoria", "state": "Gauteng", "country": "ZA", "elevation": 4095, "lat": -25.6539001465, "lon": 28.224199295, "tz": "Africa/Johannesburg"},
    {"icao": "FAWK", "iata": "WKF", "name": "Waterkloof Air Force Base", "city": "Pretoria", "state": "Gauteng", "country": "ZA", "elevation": 4940, "lat": -25.8299999237, "lon": 28.2224998474, "tz": "Africa/Johannesburg"},
    {"icao": "FBSK", "iata": "GBE", "name": "Sir Seretse Khama International Airport", "city": "Gaborone", "state": "South-East", "country": "BW", "elevation": 3299, "lat": -24.5552005768, "lon": 25.9181995392, "tz": "Africa/Gaborone"},
    {"icao": "FCBB", "iata": "BZV", "name": "Maya-Maya Airport", "city": "Brazzaville", "state": "Brazzaville", "country": "CG", "elevation": 1048, "lat": -4.2516999245, "lon": 15.2530002594, "tz": "Africa/Brazzaville"},
    {"icao": "FD55", "iata": "", "name": "Rutten Dusting Strip", "city": "Havana", "state": "Florida", "country": "US", "elevation": 260, "lat": 30.6793994904, "lon": -84.369102478, "tz": "America/New_York"},
    {"icao": "FEFF", "iata": "BGF", "name": "Bangui M'Poko International Airport", "city": "Bangui", "state": "Ombella-M'Poko", "country": "CF", "elevation": 1208, "lat": 4.3984799385, "lon": 18.5188007355, "tz": "Africa/Bangui"},
    {"icao": "FGSL", "iata": "SSG", "name": "Malabo Airport", "city": "Malabo", "state": "", "country": "GQ", "elevation": 76, "lat": 3.7552700043, "lon": 8.7087202072, "tz": "Africa/Malabo"},
    {"icao": "FIMP", "iata": "MRU", "name": "Sir Seewoosagur Ramgoolam International Airport", "city": "Port Louis", "state": "Grand-Port", "country": "MU", "elevation": 186, "lat": -20.4302005768, "lon": 57.6836013794, "tz": "Indian/Mauritius"},
    {"icao": "FJDG", "iata": "NKW", "name": "Diego Garcia Naval Support Facility", "city": "Diego Garcia", "state": "", "country": "IO", "elevation": 9, "lat": -7.313270092, "lon": 72.4111022949, "tz": "Indian/Chagos"},
    {"icao": "FKKY", "iata": "YAO", "name": "Yaounde Airport", "city": "Yaounde", "state": "Centre", "country": "CM", "elevation": 2464, "lat": 3.83604002, "lon": 11.5235004425, "tz": "Africa/Douala"},
    {"icao": "FKYS", "iata": "NSI", "name": "Yaounde Nsimalen International Airport", "city": "Yaounde", "state": "Centre", "country": "CM", "elevation": 2278, "lat": 3.7225599289, "lon": 11.5532999039, "tz": "Africa/Douala"},
    {"icao": "FLKK", "iata": "LUN", "name": "Kenneth Kaunda International Airport", "city": "Lusaka", "state": "Lusaka", "country": "ZM", "elevation": 3779, "lat": -15.3308000565, "lon": 28.4526004791, "tz": "Africa/Lusaka"},
    {"icao": "FLLC", "iata": "", "name": "Lusaka City Airport", "city": "Lusaka", "state": "Lusaka", "country": "ZM", "elevation": 4200, "lat": -15.4138002396, "lon": 28.3306999207, "tz": "Africa/Lusaka"},
    {"icao": "FLLS", "iata": "", "name": "Lusaka International Airport", "city": "Lusaka", "state": "Lusaka", "country": "ZM", "elevation": 3779, "lat": -15.3308000565, "lon": 28.4526004791, "tz": "Africa/Lusaka"},
    {"icao": "FMCH", "iata": "HAH", "name": "Prince Said Ibrahim International Airport", "city": "Moroni", "state": "Grande-Comore", "country": "KM", "elevation": 93, "lat": -11.5336999893, "lon": 43.271900177, "tz": "Indian/Comoro"},
    {"icao": "FMCN", "iata": "YVA", "name": "Iconi Airport", "city": "Moroni", "state": "Grande-Comore", "country": "KM", "elevation": 33, "lat": -11.7108001709, "lon": 43.2439002991, "tz": "Indian/Comoro"},
    {"icao": "FMMI", "iata": "TNR", "name": "Ivato Airport", "city": "Antananarivo", "state": "", "country": "MG", "elevation": 4198, "lat": -18.7968997955, "lon": 47.4788017273, "tz": "Indian/Antananarivo"},
    {"icao": "FNLU", "iata": "LAD", "name": "Quatro De Fevereiro Airport", "city": "Luanda", "state": "Luanda", "country": "AO", "elevation": 243, "lat": -8.8583698273, "lon": 13.2312002182, "tz": "Africa/Luanda"},
    {"icao": "FOOL", "iata": "LBV", "name": "Leon M Ba Airport", "city": "Libreville", "state": "Estuaire", "country": "GA", "elevation": 39, "lat": 0.4586000144, "lon": 9.4122800827, "tz": "Africa/Libreville"},
    {"icao": "FPST", "iata": "TMS", "name": "Sao Tome International Airport", "city": "Sao Tome", "state": "Sao-Tome-Island", "country": "ST", "elevation": 33, "lat": 0.3781749904, "lon": 6.7121500969, "tz": "Africa/Sao_Tome"},
    {"icao": "FQMA", "iata": "MPM", "name": "Maputo Airport", "city": "Maputo", "state": "Maputo", "country": "MZ", "elevation": 145, "lat": -25.9207992554, "lon": 32.5726013184, "tz": "Africa/Maputo"},
    {"icao": "FTTJ", "iata": "NDJ", "name": "N'Djamena International Airport", "city": "N'Djamena", "state": "Chari-Baguirmi", "country": "TD", "elevation": 968, "lat": 12.1337003708, "lon": 15.0340003967, "tz": "Africa/Ndjamena"},
    {"icao": "FVCP", "iata": "", "name": "Charles Prince Airport", "city": "Harare", "state": "Mashonaland-East", "country": "ZW", "elevation": 4845, "lat": -17.7516002655, "lon": 30.9246997833, "tz": "Africa/Harare"},
    {"icao": "FVHA", "iata": "HRE", "name": "Harare International Airport", "city": "Harare", "state": "Harare", "country": "ZW", "elevation": 4887, "lat": -17.9318008423, "lon": 31.0928001404, "tz": "Africa/Harare"},
    {"icao": "FWKI", "iata": "LLW", "name": "Lilongwe International Airport", "city": "Lilongwe", "state": "Central-Region", "country": "MW", "elevation": 4035, "lat": -13.7894001007, "lon": 33.78099823, "tz": "Africa/Blantyre"},
    {"icao": "FWLE", "iata": "", "name": "Lilongwe Airport", "city": "Lilongwe", "state": "Central-Region", "country": "MW", "elevation": 3722, "lat": -13.9659996033, "lon": 33.7018013, "tz": "Africa/Blantyre"},
    {"icao": "FXMM", "iata": "MSU", "name": "Moshoeshoe I International Airport", "city": "Maseru", "state": "Maseru", "country": "LS", "elevation": 5348, "lat": -29.4622993469, "lon": 27.5524997711, "tz": "Africa/Maseru"},
    {"icao": "FXMU", "iata": "", "name": "Mejametalana Airbase", "city": "Maseru", "state": "Maseru", "country": "LS", "elevation": 5105, "lat": -29.3041000366, "lon": 27.5034999847, "tz": "Africa/Maseru"},
    {"icao": "FYWE", "iata": "ERS", "name": "Eros Airport", "city": "Windhoek", "state": "Khomas", "country": "NA", "elevation": 5575, "lat": -22.6121997833, "lon": 17.0804004669, "tz": "Africa/Windhoek"},
    {"icao": "FYWH", "iata": "WDH", "name": "Hosea Kutako International Airport", "city": "Windhoek", "state": "Khomas", "country": "NA", "elevation": 5640, "lat": -22.4799003601, "lon": 17.4708995819, "tz": "Africa/Windhoek"},
    {"icao": "FZAA", "iata": "FIH", "name": "Ndjili International Airport", "city": "Kinshasa", "state": "", "country": "CD", "elevation": 1027, "lat": -4.3857498169, "lon": 15.4446001053, "tz": "Africa/Kinshasa"},
    {"icao": "GA77", "iata": "", "name": "Wallace Field", "city": "Rome", "state": "Georgia", "country": "US", "elevation": 810, "lat": 34.135799408, "lon": -85.112197876, "tz": "America/New_York"},
    {"icao": "GBYD", "iata": "BJL", "name": "Banjul International Airport", "city": "Banjul", "state": "Western", "country": "GM", "elevation": 95, "lat": 13.3380002975, "lon": -16.6522006989, "tz": "Africa/Banjul"},
    {"icao": "GE26", "iata": "", "name": "Duke Strip 2", "city": "Dublin", "state": "Georgia", "country": "US", "elevation": 340, "lat": 32.381667, "lon": -83.059722, "tz": "America/New_York"},
    {"icao": "GFHA", "iata": "HGS", "name": "Hastings Airport", "city": "Freetown", "state": "Western-Area", "country": "SL", "elevation": 60, "lat": 8.3971300125, "lon": -13.1290998459, "tz": "Africa/Freetown"},
    {"icao": "GFLL", "iata": "FNA", "name": "Lungi International Airport", "city": "Freetown", "state": "Northern-Province", "country": "SL", "elevation": 84, "lat": 8.6164398193, "lon": -13.1955003738, "tz": "Africa/Freetown"},
    {"icao": "GGOV", "iata": "OXB", "name": "Osvaldo Vieira International Airport", "city": "Bissau", "state": "", "country": "GW", "elevation": 129, "lat": 11.8948001862, "lon": -15.6536998749, "tz": "Africa/Bissau"},
    {"icao": "GLMR", "iata": "MLW", "name": "Spriggs Payne Airport", "city": "Monrovia", "state": "Montserrado", "country": "LR", "elevation": 25, "lat": 6.2890601158, "lon": -10.7587003708, "tz": "Africa/Monrovia"},
    {"icao": "GLRB", "iata": "ROB", "name": "Roberts International Airport", "city": "Monrovia", "state": "Margibi", "country": "LR", "elevation": 31, "lat": 6.2337899208, "lon": -10.3622999191, "tz": "Africa/Monrovia"},
    {"icao": "GMME", "iata": "RBA", "name": "Rabat-Sale Airport", "city": "Rabat", "state": "", "country": "MA", "elevation": 276, "lat": 34.0514984131, "lon": -6.7515201569, "tz": "Africa/Casablanca"},
    {"icao": "GOOY", "iata": "DKR", "name": "Leopold Sedar Senghor International Airport", "city": "Dakar", "state": "Dakar", "country": "SN", "elevation": 85, "lat": 14.7397003174, "lon": -17.4902000427, "tz": "Africa/Dakar"},
    {"icao": "GQNN", "iata": "NKC", "name": "Nouakchott International Airport", "city": "Nouakchott", "state": "Trarza", "country": "MR", "elevation": 13, "lat": 18.0981998444, "lon": -15.9484996796, "tz": "Africa/Nouakchott"},
    {"icao": "GUCY", "iata": "CKY", "name": "Conakry Airport", "city": "Conakry", "state": "Conakry", "country": "GN", "elevation": 72, "lat": 9.57689, "lon": -13.612, "tz": "Africa/Conakry"},
    {"icao": "GVNP", "iata": "RAI", "name": "Praia International Airport", "city": "Praia", "state": "Praia", "country": "CV", "elevation": 230, "lat": 14.9245004654, "lon": -23.4934997559, "tz": "Atlantic/Cape_Verde"},
    {"icao": "HAAB", "iata": "ADD", "name": "Bole International Airport", "city": "Addis Ababa", "state": "Addis-Ababa", "country": "ET", "elevation": 7630, "lat": 8.9778900147, "lon": 38.7993011475, "tz": "Africa/Addis_Ababa"},
    {"icao": "HAAL", "iata": "", "name": "Lideta Army Airport", "city": "Addis Ababa", "state": "", "country": "ET", "elevation": 7749, "lat": 9.0036802292, "lon": 38.7260017395, "tz": "Africa/Addis_Ababa"},
    {"icao": "HBBA", "iata": "BJM", "name": "Bujumbura International Airport", "city": "Bujumbura", "state": "Bujumbura-Mairie", "country": "BI", "elevation": 2582, "lat": -3.3240199089, "lon": 29.3185005188, "tz": "Africa/Bujumbura"},
    {"icao": "HCMH", "iata": "HGA", "name": "Egal International Airport", "city": "Hargeisa", "state": "Woqooyi-Galbeed", "country": "SO", "elevation": 4423, "lat": 9.5181703568, "lon": 44.0887985229, "tz": "Africa/Mogadishu"},
    {"icao": "HCMM", "iata": "MGQ", "name": "Aden Adde International Airport", "city": "Mogadishu", "state": "Banaadir", "country": "SO", "elevation": 29, "lat": 2.0144400597, "lon": 45.3046989441, "tz": "Africa/Mogadishu"},
    {"icao": "HEAZ", "iata": "", "name": "Almaza Air Force Base", "city": "Cairo", "state": "Cairo", "country": "EG", "elevation": 300, "lat": 30.0918006897, "lon": 31.3600006104, "tz": "Africa/Cairo"},
    {"icao": "HECA", "iata": "CAI", "name": "Cairo International Airport", "city": "Cairo", "state": "Cairo", "country": "EG", "elevation": 382, "lat": 30.1219005585, "lon": 31.4055995941, "tz": "Africa/Cairo"},
    {"icao": "HEEM", "iata": "", "name": "Giza Embaba Airport", "city": "Cairo", "state": "Giza", "country": "EG", "elevation": 59, "lat": 30.0746994019, "lon": 31.191400528, "tz": "Africa/Cairo"},
    {"icao": "HHAS", "iata": "ASM", "name": "Asmara International Airport", "city": "Asmara", "state": "Maekel", "country": "ER", "elevation": 7661, "lat": 15.2918996811, "lon": 38.9107017517, "tz": "Africa/Asmara"},
    {"icao": "HKJK", "iata": "NBO", "name": "Jomo Kenyatta International Airport", "city": "Nairobi", "state": "Nairobi-Area", "country": "KE", "elevation": 5330, "lat": -1.319239974, "lon": 36.9277992249, "tz": "Africa/Nairobi"},
    {"icao": "HKNW", "iata": "WIL", "name": "Nairobi Wilson Airport", "city": "Nairobi", "state": "Nairobi-Area", "country": "KE", "elevation": 5536, "lat": -1.3217200041, "lon": 36.8148002625, "tz": "Africa/Nairobi"},
    {"icao": "HKRE", "iata": "", "name": "Moi Air Base", "city": "Nairobi", "state": "Nairobi-Area", "country": "KE", "elevation": 5336, "lat": -1.2772699594, "lon": 36.8623008728, "tz": "Africa/Nairobi"},
    {"icao": "HLLM", "iata": "MJI", "name": "Mitiga Airport", "city": "Tripoli", "state": "Tripoli", "country": "LY", "elevation": 36, "lat": 32.8941001892, "lon": 13.2760000229, "tz": "Africa/Tripoli"},
    {"icao": "HLLT", "iata": "TIP", "name": "Tripoli International Airport", "city": "Tripoli", "state": "", "country": "LY", "elevation": 263, "lat": 32.6635017395, "lon": 13.1590003967, "tz": "Africa/Tripoli"},
    {"icao": "HRYR", "iata": "KGL", "name": "Kigali International Airport", "city": "Kigali", "state": "Kigali", "country": "RW", "elevation": 4859, "lat": -1.9686299563, "lon": 30.1394996643, "tz": "Africa/Kigali"},
    {"icao": "HSSJ", "iata": "JUB", "name": "Juba Airport", "city": "Juba", "state": "", "country": "SS", "elevation": 1513, "lat": 4.872010231, "lon": 31.6011009216, "tz": "Africa/Juba"},
    {"icao": "HSSS", "iata": "KRT", "name": "Khartoum International Airport", "city": "Khartoum", "state": "Khartoum", "country": "SD", "elevation": 1265, "lat": 15.5895004272, "lon": 32.5531997681, "tz": "Africa/Khartoum"},
    {"icao": "HTDA", "iata": "DAR", "name": "Mwalimu Julius K. Nyerere International Airport", "city": "Dar es Salaam", "state": "Dar-es-Salaam", "country": "TZ", "elevation": 182, "lat": -6.8781099319, "lon": 39.2025985718, "tz": "Africa/Dar_es_Salaam"},
    {"icao": "HUEN", "iata": "EBB", "name": "Entebbe International Airport", "city": "Kampala", "state": "Central-Region", "country": "UG", "elevation": 3782, "lat": 0.0423859991, "lon": 32.4435005188, "tz": "Africa/Kampala"},
    {"icao": "ID60", "iata": "", "name": "Fountains Airport", "city": "Moscow", "state": "Idaho", "country": "US", "elevation": 2550, "lat": 46.7131996155, "lon": -116.9970016479, "tz": "America/Los_Angeles"},
    {"icao": "II62", "iata": "", "name": "Berger Airport", "city": "Plymouth", "state": "Indiana", "country": "US", "elevation": 800, "lat": 41.3877983093, "lon": -86.2585983276, "tz": "America/Indiana/Indianapolis"},
    {"icao": "IN25", "iata": "", "name": "Hood Field", "city": "Jamestown", "state": "Indiana", "country": "US", "elevation": 930, "lat": 39.9981002808, "lon": -86.5772018433, "tz": "America/Indiana/Indianapolis"},
    {"icao": "IN83", "iata": "", "name": "Lautzenhiser Airpark", "city": "Hamilton", "state": "Indiana", "country": "US", "elevation": 928, "lat": 41.5023002625, "lon": -84.9301986694, "tz": "America/Indiana/Indianapolis"},
    {"icao": "K08D", "iata": "", "name": "Stanley Municipal Airport", "city": "Stanley", "state": "North-Dakota", "country": "US", "elevation": 2245, "lat": 48.3008003235, "lon": -102.40599823, "tz": "America/Chicago"},
    {"icao": "K19N", "iata": "", "name": "Camden County Airport", "city": "Berlin", "state": "New-Jersey", "country": "US", "elevation": 149, "lat": 39.77840042, "lon": -74.94779968, "tz": "America/New_York"},
    {"icao": "K1U7", "iata": "", "name": "Bear Lake County Airport", "city": "Paris", "state": "Idaho", "country": "US", "elevation": 5928, "lat": 42.2472000122, "lon": -111.3379974365, "tz": "America/Boise"},
    {"icao": "K20N", "iata": "", "name": "Kingston-Ulster Airport", "city": "Kingston", "state": "New-York", "country": "US", "elevation": 149, "lat": 41.9852981567, "lon": -73.9641036987, "tz": "America/New_York"},
    {"icao": "K27K", "iata": "", "name": "Georgetown Scott County - Marshall Field", "city": "Georgetown", "state": "Kentucky", "country": "US", "elevation": 947, "lat": 38.2344017029, "lon": -84.4347000122, "tz": "America/New_York"},
    {"icao": "K2A1", "iata": "", "name": "Jamestown Municipal Airport", "city": "Jamestown", "state": "Tennessee", "country": "US", "elevation": 1694, "lat": 36.3497009277, "lon": -84.9467010498, "tz": "America/Chicago"},
    {"icao": "K40U", "iata": "", "name": "Manila Airport", "city": "Manila", "state": "Utah", "country": "US", "elevation": 6175, "lat": 40.9860992432, "lon": -109.6780014038, "tz": "America/Denver"},
    {"icao": "K6L3", "iata": "", "name": "Lisbon Municipal Airport", "city": "Lisbon", "state": "North-Dakota", "country": "US", "elevation": 1232, "lat": 46.44660187, "lon": -97.72730255, "tz": "America/Chicago"},
    {"icao": "K6S5", "iata": "", "name": "Ravalli County Airport", "city": "Hamilton", "state": "Montana", "country": "US", "elevation": 3642, "lat": 46.251499176, "lon": -114.1259994507, "tz": "America/Denver"},
    {"icao": "K70J", "iata": "", "name": "Cairo Grady County Airport", "city": "Cairo", "state": "Georgia", "country": "US", "elevation": 265, "lat": 30.8880004883, "lon": -84.1547012329, "tz": "America/New_York"},
    {"icao": "K8N2", "iata": "", "name": "Skydive Chicago Airport", "city": "Ottawa", "state": "Illinois", "country": "US", "elevation": 616, "lat": 41.3997993469, "lon": -88.7938995361, "tz": "America/Chicago"},
    {"icao": "K9F0", "iata": "", "name": "Dublin Municipal Airport", "city": "Dublin", "state": "Texas", "country": "US", "elevation": 1495, "lat": 32.0681991577, "lon": -98.325302124, "tz": "America/Chicago"},
    {"icao": "KAFJ", "iata": "WSG", "name": "Washington County Airport", "city": "Washington", "state": "Pennsylvania", "country": "US", "elevation": 1184, "lat": 40.1365013123, "lon": -80.2901992798, "tz": "America/New_York"},
    {"icao": "KAHN", "iata": "AHN", "name": "Athens Ben Epps Airport", "city": "Athens", "state": "Georgia", "country": "US", "elevation": 808, "lat": 33.948600769, "lon": -83.3263015747, "tz": "America/New_York"},
    {"icao": "KAOH", "iata": "AOH", "name": "Lima Allen County Airport", "city": "Lima", "state": "Ohio", "country": "US", "elevation": 975, "lat": 40.7069015503, "lon": -84.0267028809, "tz": "America/New_York"},
    {"icao": "KASW", "iata": "", "name": "Warsaw Municipal Airport", "city": "Warsaw", "state": "Indiana", "country": "US", "elevation": 850, "lat": 41.2747001648, "lon": -85.8401031494, "tz": "America/New_York"},
    {"icao": "KAWG", "iata": "", "name": "Washington Municipal Airport", "city": "Washington", "state": "Iowa", "country": "US", "elevation": 754, "lat": 41.2761001587, "lon": -91.6734008789, "tz": "America/Chicago"},
    {"icao": "KBML", "iata": "BML", "name": "Berlin Regional Airport", "city": "Berlin", "state": "New-Hampshire", "country": "US", "elevation": 1161, "lat": 44.57540131, "lon": -71.17590332, "tz": "America/New_York"},
    {"icao": "KC65", "iata": "", "name": "Plymouth Municipal Airport", "city": "Plymouth", "state": "Indiana", "country": "US", "elevation": 800, "lat": 41.3651008606, "lon": -86.3004989624, "tz": "America/Indiana/Indianapolis"},
    {"icao": "KCIR", "iata": "", "name": "Cairo Regional Airport", "city": "Cairo", "state": "Illinois", "country": "US", "elevation": 321, "lat": 37.0644989014, "lon": -89.2195968628, "tz": "America/Chicago"},
    {"icao": "KDBN", "iata": "DBN", "name": "W H 'Bud' Barron Airport", "city": "Dublin", "state": "Georgia", "country": "US", "elevation": 309, "lat": 32.56439972, "lon": -82.98529816, "tz": "America/New_York"},
    {"icao": "KDCA", "iata": "DCA", "name": "Ronald Reagan Washington National Airport", "city": "Washington", "state": "Virginia", "country": "US", "elevation": 15, "lat": 38.8521003723, "lon": -77.0376968384, "tz": "America/New_York"},
    {"icao": "KDCY", "iata": "", "name": "Daviess County Airport", "city": "Washington", "state": "Indiana", "country": "US", "elevation": 473, "lat": 38.7004013062, "lon": -87.129699707, "tz": "America/Indiana/Vincennes"},
    {"icao": "KDGL", "iata": "DGL", "name": "Douglas Municipal Airport", "city": "Douglas", "state": "Arizona", "country": "US", "elevation": 4173, "lat": 31.3425998688, "lon": -109.505996704, "tz": "America/Phoenix"},
    {"icao": "KDGW", "iata": "DGW", "name": "Converse County Airport", "city": "Douglas", "state": "Wyoming", "country": "US", "elevation": 4933, "lat": 42.79719925, "lon": -105.3860016, "tz": "America/Denver"},
    {"icao": "KDQH", "iata": "", "name": "Douglas Municipal Airport", "city": "Douglas", "state": "Arizona", "country": "US", "elevation": 257, "lat": 31.4766998291, "lon": -82.860496521, "tz": "America/New_York"},
    {"icao": "KEGT", "iata": "", "name": "Wellington Municipal Airport", "city": "Wellington", "state": "Kansas", "country": "US", "elevation": 1277, "lat": 37.323600769, "lon": -97.3882980347, "tz": "America/Chicago"},
    {"icao": "KF06", "iata": "", "name": "Marian Airpark", "city": "Wellington", "state": "Texas", "country": "US", "elevation": 2008, "lat": 34.8456001282, "lon": -100.1959991455, "tz": "America/Chicago"},
    {"icao": "KF31", "iata": "", "name": "Lake Texoma State Park Airport", "city": "Kingston", "state": "Oklahoma", "country": "US", "elevation": 693, "lat": 33.9910011292, "lon": -96.6427993774, "tz": "America/Chicago"},
    {"icao": "KF44", "iata": "", "name": "Athens Municipal Airport", "city": "Athens", "state": "Texas", "country": "US", "elevation": 444, "lat": 32.1638478, "lon": -95.8283531, "tz": "America/Chicago"},
    {"icao": "KGED", "iata": "", "name": "Sussex County Airport", "city": "Georgetown", "state": "Delaware", "country": "US", "elevation": 53, "lat": 38.68920135, "lon": -75.35890198, "tz": "America/New_York"},
    {"icao": "KGEO", "iata": "", "name": "Brown County Airport", "city": "Georgetown", "state": "Ohio", "country": "US", "elevation": 958, "lat": 38.8819007874, "lon": -83.8826980591, "tz": "America/New_York"},
    {"icao": "KGGE", "iata": "", "name": "Georgetown County Airport", "city": "Georgetown", "state": "South-Carolina", "country": "US", "elevation": 39, "lat": 33.3116989136, "lon": -79.3196029663, "tz": "America/New_York"},
    {"icao": "KGTU", "iata": "", "name": "Georgetown Municipal Airport", "city": "Georgetown", "state": "Texas", "country": "US", "elevation": 790, "lat": 30.6788005829, "lon": -97.679397583, "tz": "America/Chicago"},
    {"icao": "KHAB", "iata": "", "name": "Marion County Rankin Fite Airport", "city": "Hamilton", "state": "Alabama", "country": "US", "elevation": 436, "lat": 34.11759949, "lon": -87.99819946, "tz": "America/Chicago"},
    {"icao": "KHAO", "iata": "", "name": "Butler Co Regional Airport", "city": "Hamilton", "state": "Ohio", "country": "US", "elevation": 633, "lat": 39.3638000488, "lon": -84.5220031738, "tz": "America/New_York"},
    {"icao": "KIAD", "iata": "IAD", "name": "Washington Dulles International Airport", "city": "Washington", "state": "Virginia", "country": "US", "elevation": 312, "lat": 38.94449997, "lon": -77.45580292, "tz": "America/New_York"},
    {"icao": "KIIY", "iata": "", "name": "Washington Wilkes County Airport", "city": "Washington", "state": "Georgia", "country": "US", "elevation": 646, "lat": 33.77939987, "lon": -82.81580353, "tz": "America/New_York"},
    {"icao": "KJHW", "iata": "", "name": "Chautauqua County-Jamestown Airport", "city": "Jamestown", "state": "New-York", "country": "US", "elevation": 1723, "lat": 42.15340042, "lon": -79.25800323, "tz": "America/New_York"},
    {"icao": "KJMS", "iata": "JMS", "name": "Jamestown Regional Airport", "city": "Jamestown", "state": "North-Dakota", "country": "US", "elevation": 1500, "lat": 46.92969894, "lon": -98.67819977, "tz": "America/Chicago"},
    {"icao": "KK16", "iata": "", "name": "Becks Grove Airport", "city": "Rome", "state": "New-York", "country": "US", "elevation": 450, "lat": 43.2583999634, "lon": -75.6037979126, "tz": "America/New_York"},
    {"icao": "KK24", "iata": "", "name": "Russell County Airport", "city": "Jamestown", "state": "Kentucky", "country": "US", "elevation": 1011, "lat": 37.0097007751, "lon": -85.1026992798, "tz": "America/Chicago"},
    {"icao": "KK38", "iata": "", "name": "Washington County Memorial Airport", "city": "Washington", "state": "Kansas", "country": "US", "elevation": 1435, "lat": 39.73350143, "lon": -97.04769897, "tz": "America/Chicago"},
    {"icao": "KLOZ", "iata": "", "name": "London Corbin Airport Magee Field", "city": "London", "state": "Kentucky", "country": "US", "elevation": 1212, "lat": 37.0821990967, "lon": -84.0848999023, "tz": "America/New_York"},
    {"icao": "KMMI", "iata": "", "name": "McMinn County Airport", "city": "Athens", "state": "Tennessee", "country": "US", "elevation": 875, "lat": 35.39730072, "lon": -84.56259918, "tz": "America/New_York"},
    {"icao": "KMNZ", "iata": "", "name": "Hamilton Municipal Airport", "city": "Hamilton", "state": "New-York", "country": "US", "elevation": 1299, "lat": 31.6658992767, "lon": -98.1485977173, "tz": "America/Chicago"},
    {"icao": "KMO6", "iata": "", "name": "Washington Regional Airport", "city": "Washington", "state": "Missouri", "country": "US", "elevation": 488, "lat": 38.58760071, "lon": -90.9937973, "tz": "America/Chicago"},
    {"icao": "KMVE", "iata": "", "name": "Montevideo Chippewa County Airport", "city": "Montevideo", "state": "Minnesota", "country": "US", "elevation": 1034, "lat": 44.9691009521, "lon": -95.7102966309, "tz": "America/Chicago"},
    {"icao": "KMXA", "iata": "", "name": "Manila Municipal Airport", "city": "Manila", "state": "Arkansas", "country": "US", "elevation": 242, "lat": 35.8944015503, "lon": -90.1546020508, "tz": "America/Chicago"},
    {"icao": "KO47", "iata": "", "name": "Prague Municipal Airport", "city": "Prague", "state": "Oklahoma", "country": "US", "elevation": 1042, "lat": 35.4822998047, "lon": -96.7186965942, "tz": "America/Chicago"},
    {"icao": "KOCW", "iata": "", "name": "Warren Field", "city": "Washington", "state": "Georgia", "country": "US", "elevation": 38, "lat": 35.5704994202, "lon": -77.0497970581, "tz": "America/New_York"},
    {"icao": "KOWI", "iata": "", "name": "Ottawa Municipal Airport", "city": "Ottawa", "state": "Kansas", "country": "US", "elevation": 966, "lat": 38.5387001038, "lon": -95.2529983521, "tz": "America/Chicago"},
    {"icao": "KOWX", "iata": "", "name": "Putnam County Airport", "city": "Ottawa", "state": "Ohio", "country": "US", "elevation": 764, "lat": 41.03559875, "lon": -83.98200226, "tz": "America/New_York"},
    {"icao": "KP03", "iata": "", "name": "Cochise College Airport", "city": "Douglas", "state": "Arizona", "country": "US", "elevation": 4124, "lat": 31.371099472, "lon": -109.6900024414, "tz": "America/Phoenix"},
    {"icao": "KPAM", "iata": "", "name": "Tyndall Air Force Base", "city": "Panama City", "state": "Florida", "country": "US", "elevation": 17, "lat": 30.0695991516, "lon": -85.5754013062, "tz": "America/New_York"},
    {"icao": "KPFN", "iata": "PFN", "name": "Panama City-Bay Co International Airport", "city": "Panama City", "state": "Florida", "country": "US", "elevation": 20, "lat": 30.2120990753, "lon": -85.682800293, "tz": "America/New_York"},
    {"icao": "KPHT", "iata": "", "name": "Henry County Airport", "city": "Paris", "state": "Tennessee", "country": "US", "elevation": 580, "lat": 36.3381996155, "lon": -88.3828964233, "tz": "America/Chicago"},
    {"icao": "KPMZ", "iata": "", "name": "Plymouth Municipal Airport", "city": "Plymouth", "state": "North-Carolina", "country": "US", "elevation": 39, "lat": 35.8083992004, "lon": -76.7593002319, "tz": "America/New_York"},
    {"icao": "KPRG", "iata": "", "name": "Edgar County Airport", "city": "Paris", "state": "Illinois", "country": "US", "elevation": 654, "lat": 39.7001991272, "lon": -87.6696014404, "tz": "America/Chicago"},
    {"icao": "KPRX", "iata": "", "name": "Cox Field", "city": "Paris", "state": "Texas", "country": "US", "elevation": 547, "lat": 33.6366004944, "lon": -95.4507980347, "tz": "America/Chicago"},
    {"icao": "KPSB", "iata": "", "name": "Mid State Airport", "city": "Philipsburg", "state": "Pennsylvania", "country": "US", "elevation": 1948, "lat": 40.8843994141, "lon": -78.0873031616, "tz": "America/New_York"},
    {"icao": "KPSK", "iata": "", "name": "New River Valley Airport", "city": "Dublin", "state": "Virginia", "country": "US", "elevation": 2105, "lat": 37.137298584, "lon": -80.6784973145, "tz": "America/New_York"},
    {"icao": "KPYM", "iata": "", "name": "Plymouth Municipal Airport", "city": "Plymouth", "state": "Indiana", "country": "US", "elevation": 148, "lat": 41.9090003967, "lon": -70.7287979126, "tz": "America/New_York"},
    {"icao": "KRAW", "iata": "", "name": "Warsaw Municipal Airport", "city": "Warsaw", "state": "Missouri", "country": "US", "elevation": 936, "lat": 38.3469009399, "lon": -93.3453979492, "tz": "America/Chicago"},
    {"icao": "KREO", "iata": "", "name": "Rome State Airport", "city": "Rome", "state": "Oregon", "country": "US", "elevation": 4053, "lat": 42.5777015686, "lon": -117.8850021362, "tz": "America/Boise"},
    {"icao": "KRHV", "iata": "", "name": "Reid Hillview of Santa Clara County Airport", "city": "San Jose", "state": "California", "country": "US", "elevation": 135, "lat": 37.332901001, "lon": -121.8190002441, "tz": "America/Los_Angeles"},
    {"icao": "KRME", "iata": "", "name": "Griffiss International Airport", "city": "Rome", "state": "New-York", "country": "US", "elevation": 504, "lat": 43.23379898, "lon": -75.40699768, "tz": "America/New_York"},
    {"icao": "KRMG", "iata": "", "name": "Richard B Russell Airport", "city": "Rome", "state": "Georgia", "country": "US", "elevation": 644, "lat": 34.3506011963, "lon": -85.1579971313, "tz": "America/New_York"},
    {"icao": "KROX", "iata": "", "name": "Roseau Municipal Rudy Billberg Field", "city": "Roseau", "state": "Minnesota", "country": "US", "elevation": 1060, "lat": 48.85599899, "lon": -95.6969986, "tz": "America/Chicago"},
    {"icao": "KSJC", "iata": "SJC", "name": "Norman Y. Mineta San Jose International Airport", "city": "San Jose", "state": "California", "country": "US", "elevation": 62, "lat": 37.3625984192, "lon": -121.9290008545, "tz": "America/Los_Angeles"},
    {"icao": "KU05", "iata": "", "name": "Riddick Field", "city": "Philipsburg", "state": "Montana", "country": "US", "elevation": 5212, "lat": 46.3194007874, "lon": -113.3050003052, "tz": "America/Denver"},
    {"icao": "KU63", "iata": "", "name": "Bruce Meadows Airport", "city": "Stanley", "state": "Idaho", "country": "US", "elevation": 6370, "lat": 44.4155006409, "lon": -115.3170013428, "tz": "America/Boise"},
    {"icao": "KUYF", "iata": "", "name": "Madison County Airport", "city": "London", "state": "Ohio", "country": "US", "elevation": 1082, "lat": 39.93270111, "lon": -83.46199799, "tz": "America/New_York"},
    {"icao": "KVCT", "iata": "VCT", "name": "Victoria Regional Airport", "city": "Victoria", "state": "Texas", "country": "US", "elevation": 115, "lat": 28.8526000977, "lon": -96.9185028076, "tz": "America/Chicago"},
    {"icao": "KVGC", "iata": "", "name": "Hamilton Municipal Airport", "city": "Hamilton", "state": "New-York", "country": "US", "elevation": 1137, "lat": 42.84379959, "lon": -75.56140137, "tz": "America/New_York"},
    {"icao": "LATI", "iata": "TIA", "name": "Tirana International Airport Mother Teresa", "city": "Tirana", "state": "", "country": "AL", "elevation": 126, "lat": 41.4146995544, "lon": 19.7206001282, "tz": "Europe/Tirane"},
    {"icao": "LBSF", "iata": "SOF", "name": "Sofia Airport", "city": "Sofia", "state": "Sofia-Capital", "country": "BG", "elevation": 1742, "lat": 42.6966934204, "lon": 23.4114360809, "tz": "Europe/Sofia"},
    {"icao": "LCEN", "iata": "ECN", "name": "Ercan International Airport", "city": "Nicosia", "state": "Nicosia", "country": "CY", "elevation": 404, "lat": 35.1547012329, "lon": 33.4961013794, "tz": "Asia/Nicosia"},
    {"icao": "LDZA", "iata": "ZAG", "name": "Zagreb Airport", "city": "Zagreb", "state": "Zagrebacka", "country": "HR", "elevation": 353, "lat": 45.7429008484, "lon": 16.0687999725, "tz": "Europe/Zagreb"},
    {"icao": "LDZL", "iata": "", "name": "Lucko Airport", "city": "Zagreb", "state": "City-of-Zagreb", "country": "HR", "elevation": 400, "lat": 45.7668991089, "lon": 15.8486003876, "tz": "Europe/Zagreb"},
    {"icao": "LECU", "iata": "ECV", "name": "Cuatro Vientos Airport", "city": "Madrid", "state": "Madrid", "country": "ES", "elevation": 2269, "lat": 40.3707008362, "lon": -3.7851400375, "tz": "Europe/Madrid"},
    {"icao": "LEMD", "iata": "MAD", "name": "Madrid Barajas International Airport", "city": "Madrid", "state": "Madrid", "country": "ES", "elevation": 2001, "lat": 40.4936, "lon": -3.56676, "tz": "Europe/Madrid"},
    {"icao": "LETO", "iata": "TOJ", "name": "Torrejon Airport", "city": "Madrid", "state": "Madrid", "country": "ES", "elevation": 2026, "lat": 40.4967002869, "lon": -3.4458699226, "tz": "Europe/Madrid"},
    {"icao": "LFPB", "iata": "LBG", "name": "Paris-Le Bourget Airport", "city": "Paris", "state": "Ile-de-France", "country": "FR", "elevation": 218, "lat": 48.9693984985, "lon": 2.4413900375, "tz": "Europe/Paris"},
    {"icao": "LFPG", "iata": "CDG", "name": "Charles de Gaulle International Airport", "city": "Paris", "state": "Ile-de-France", "country": "FR", "elevation": 392, "lat": 49.0127983093, "lon": 2.5499999523, "tz": "Europe/Paris"},
    {"icao": "LFPH", "iata": "", "name": "Chelles le Pin Airport", "city": "Paris", "state": "Ile-de-France", "country": "FR", "elevation": 207, "lat": 48.8978004456, "lon": 2.6075000763, "tz": "Europe/Paris"},
    {"icao": "LFPL", "iata": "", "name": "Lognes Emerainville Airport", "city": "Paris", "state": "Ile-de-France", "country": "FR", "elevation": 354, "lat": 48.8231010437, "lon": 2.6238899231, "tz": "Europe/Paris"},
    {"icao": "LFPO", "iata": "ORY", "name": "Paris-Orly Airport", "city": "Paris", "state": "Ile-de-France", "country": "FR", "elevation": 291, "lat": 48.7252998352, "lon": 2.3594400883, "tz": "Europe/Paris"},
    {"icao": "LFPP", "iata": "", "name": "Le Plessis Belleville Airport", "city": "Paris", "state": "Hauts-de-France", "country": "FR", "elevation": 387, "lat": 49.1100006104, "lon": 2.7380599976, "tz": "Europe/Paris"},
    {"icao": "LFPQ", "iata": "", "name": "Fontenay Tresigny Airport", "city": "Paris", "state": "Ile-de-France", "country": "FR", "elevation": 371, "lat": 48.7071990967, "lon": 2.9044399261, "tz": "Europe/Paris"},
    {"icao": "LFVP", "iata": "FSP", "name": "St Pierre Airport", "city": "Saint-Pierre", "state": "", "country": "PM", "elevation": 27, "lat": 46.7629013062, "lon": -56.1730995178, "tz": "America/Miquelon"},
    {"icao": "LGAT", "iata": "HEW", "name": "Athen Helenikon Airport", "city": "Athens", "state": "Attica", "country": "GR", "elevation": 69, "lat": 37.8932991028, "lon": 23.7261009216, "tz": "Europe/Athens"},
    {"icao": "LGAV", "iata": "ATH", "name": "Eleftherios Venizelos International Airport", "city": "Athens", "state": "Attica", "country": "GR", "elevation": 308, "lat": 37.9364013672, "lon": 23.9444999695, "tz": "Europe/Athens"},
    {"icao": "LGTP", "iata": "", "name": "Tripolis Airport", "city": "Tripoli", "state": "Peloponnese", "country": "GR", "elevation": 2113, "lat": 37.5306015015, "lon": 22.4036006927, "tz": "Europe/Athens"},
    {"icao": "LHBP", "iata": "BUD", "name": "Budapest Listz Ferenc international Airport", "city": "Budapest", "state": "Budapest", "country": "HU", "elevation": 495, "lat": 47.4369010925, "lon": 19.2555999756, "tz": "Europe/Budapest"},
    {"icao": "LHHH", "iata": "", "name": "Harmashatarhegy Airport", "city": "Budapest", "state": "Budapest", "country": "HU", "elevation": 960, "lat": 47.5503005981, "lon": 18.9787006378, "tz": "Europe/Budapest"},
    {"icao": "LHKK", "iata": "", "name": "Kiskunlachaza-airport", "city": "Budapest", "state": "Pest", "country": "HU", "elevation": 322, "lat": 47.1688852045, "lon": 19.0849685669, "tz": "Europe/Budapest"},
    {"icao": "LIRF", "iata": "FCO", "name": "Leonardo Da Vinci (Fiumicino) International Airport", "city": "Rome", "state": "Latium", "country": "IT", "elevation": 15, "lat": 41.8045005798, "lon": 12.2508001328, "tz": "Europe/Rome"},
    {"icao": "LJLJ", "iata": "LJU", "name": "Ljubljana Joze Pucnik Airport", "city": "Ljubljana", "state": "Cerklje-na-Gorenjskem", "country": "SI", "elevation": 1273, "lat": 46.2237014771, "lon": 14.4575996399, "tz": "Europe/Ljubljana"},
    {"icao": "LKKB", "iata": "", "name": "Kbely Air Base", "city": "Prague", "state": "Praha", "country": "CZ", "elevation": 939, "lat": 50.1213989258, "lon": 14.5436000824, "tz": "Europe/Prague"},
    {"icao": "LKPR", "iata": "PRG", "name": "Ruzyne International Airport", "city": "Prague", "state": "Praha", "country": "CZ", "elevation": 1247, "lat": 50.1007995605, "lon": 14.2600002289, "tz": "Europe/Prague"},
    {"icao": "LL48", "iata": "", "name": "Wilcoxon Airport", "city": "Athens", "state": "Illinois", "country": "US", "elevation": 600, "lat": 39.9491996765, "lon": -89.7425003052, "tz": "America/Chicago"},
    {"icao": "LOWW", "iata": "VIE", "name": "Vienna International Airport", "city": "Vienna", "state": "Lower-Austria", "country": "AT", "elevation": 600, "lat": 48.1102981567, "lon": 16.5697002411, "tz": "Europe/Vienna"},
    {"icao": "LPPT", "iata": "LIS", "name": "Lisbon Portela Airport", "city": "Lisbon", "state": "Lisbon", "country": "PT", "elevation": 374, "lat": 38.7812995911, "lon": -9.1359195709, "tz": "Europe/Lisbon"},
    {"icao": "LQSA", "iata": "SJJ", "name": "Sarajevo International Airport", "city": "Sarajevo", "state": "Federation-of-B&H", "country": "BA", "elevation": 1708, "lat": 43.8246002197, "lon": 18.3314990997, "tz": "Europe/Sarajevo"},
    {"icao": "LRBS", "iata": "BBU", "name": "Baneasa International Airport", "city": "Bucharest", "state": "Bucure\u015fti", "country": "RO", "elevation": 297, "lat": 44.503200531, "lon": 26.1021003723, "tz": "Europe/Bucharest"},
    {"icao": "LROP", "iata": "OTP", "name": "Henri Coanda International Airport", "city": "Bucharest", "state": "Ilfov", "country": "RO", "elevation": 314, "lat": 44.5722007751, "lon": 26.1021995544, "tz": "Europe/Bucharest"},
    {"icao": "LSZB", "iata": "BRN", "name": "Bern Belp Airport", "city": "Bern", "state": "Bern", "country": "CH", "elevation": 1674, "lat": 46.914100647, "lon": 7.4971499443, "tz": "Europe/Zurich"},
    {"icao": "LTAB", "iata": "", "name": "Guvercinlik Airport", "city": "Ankara", "state": "Ankara", "country": "TR", "elevation": 2687, "lat": 39.9350013733, "lon": 32.7407989502, "tz": "Europe/Istanbul"},
    {"icao": "LTAC", "iata": "ESB", "name": "Esenboga International Airport", "city": "Ankara", "state": "Ankara", "country": "TR", "elevation": 3125, "lat": 40.1281013489, "lon": 32.995098114, "tz": "Europe/Istanbul"},
    {"icao": "LTAD", "iata": "ANK", "name": "Etimesgut Air Base", "city": "Ankara", "state": "Ankara", "country": "TR", "elevation": 2653, "lat": 39.949798584, "lon": 32.6885986328, "tz": "Europe/Istanbul"},
    {"icao": "LTAE", "iata": "", "name": "Akinci Air Base", "city": "Ankara", "state": "Ankara", "country": "TR", "elevation": 2767, "lat": 40.0788993835, "lon": 32.5656013489, "tz": "Europe/Istanbul"},
    {"icao": "LUKK", "iata": "KIV", "name": "Chisinau International Airport", "city": "Chisinau", "state": "Chi\u0219inau-Municipality", "country": "MD", "elevation": 399, "lat": 46.9277000427, "lon": 28.9309997559, "tz": "Europe/Chisinau"},
    {"icao": "LWSK", "iata": "SKP", "name": "Skopje Alexander the Great Airport", "city": "Skopje", "state": "Ilinden", "country": "MK", "elevation": 781, "lat": 41.9616012573, "lon": 21.6214008331, "tz": "Europe/Skopje"},
    {"icao": "LXGB", "iata": "GIB", "name": "Gibraltar Airport", "city": "Gibraltar", "state": "", "country": "GI", "elevation": 15, "lat": 36.1511993408, "lon": -5.3496599197, "tz": "Europe/Madrid"},
    {"icao": "LYBJ", "iata": "", "name": "Airport Lisicji Jarak", "city": "Belgrade", "state": "", "country": "RS", "elevation": 214, "lat": 44.9369583333, "lon": 20.4425555556, "tz": "Europe/Belgrade"},
    {"icao": "LYPG", "iata": "TGD", "name": "Podgorica Airport", "city": "Podgorica", "state": "Podgorica", "country": "ME", "elevation": 141, "lat": 42.3594017029, "lon": 19.2518997192, "tz": "Europe/Podgorica"},
    {"icao": "LYPO", "iata": "", "name": "Cemovsko Polje Airport", "city": "Podgorica", "state": "", "country": "ME", "elevation": 197, "lat": 42.4223175049, "lon": 19.2907772064, "tz": "Europe/Podgorica"},
    {"icao": "LZIB", "iata": "BTS", "name": "M. R. Stefanik Airport", "city": "Bratislava", "state": "Bratislavsky", "country": "SK", "elevation": 436, "lat": 48.1702003479, "lon": 17.2126998901, "tz": "Europe/Bratislava"},
    {"icao": "MA19", "iata": "", "name": "Berlin Lndg Area", "city": "Berlin", "state": "Massachusetts", "country": "US", "elevation": 270, "lat": 42.3675994873, "lon": -71.6417007446, "tz": "America/New_York"},
    {"icao": "MA77", "iata": "", "name": "Blueberry Hill Airport", "city": "Washington", "state": "Massachusetts", "country": "US", "elevation": 2000, "lat": 42.3750991821, "lon": -73.1475982666, "tz": "America/New_York"},
    {"icao": "MD47", "iata": "", "name": "Barnes Airport", "city": "Lisbon", "state": "Maryland", "country": "US", "elevation": 780, "lat": 39.332901001, "lon": -77.0969009399, "tz": "America/New_York"},
    {"icao": "MDSD", "iata": "SDQ", "name": "Las Americas International Airport", "city": "Santo Domingo", "state": "Nacional", "country": "DO", "elevation": 59, "lat": 18.4297008514, "lon": -69.6688995361, "tz": "America/Santo_Domingo"},
    {"icao": "MDST", "iata": "STI", "name": "Cibao International Airport", "city": "Santiago", "state": "Dajabon", "country": "DO", "elevation": 565, "lat": 19.4060993195, "lon": -70.6046981812, "tz": "America/Santo_Domingo"},
    {"icao": "ME60", "iata": "", "name": "Sunny Hill Airport", "city": "Belgrade", "state": "Maine", "country": "US", "elevation": 390, "lat": 44.4683990479, "lon": -69.8178024292, "tz": "America/New_York"},
    {"icao": "MGGT", "iata": "GUA", "name": "La Aurora Airport", "city": "Guatemala City", "state": "Guatemala", "country": "GT", "elevation": 4952, "lat": 14.5832996368, "lon": -90.5274963379, "tz": "America/Guatemala"},
    {"icao": "MHTG", "iata": "TGU", "name": "Toncontin International Airport", "city": "Tegucigalpa", "state": "Francisco-Morazan", "country": "HN", "elevation": 3294, "lat": 14.0608997345, "lon": -87.2172012329, "tz": "America/Tegucigalpa"},
    {"icao": "MKJP", "iata": "KIN", "name": "Norman Manley International Airport", "city": "Kingston", "state": "Kingston", "country": "JM", "elevation": 10, "lat": 17.9356994629, "lon": -76.7874984741, "tz": "America/Jamaica"},
    {"icao": "MMLP", "iata": "LAP", "name": "Manuel Marquez de Leon International Airport", "city": "La Paz", "state": "Baja-California-Sur", "country": "MX", "elevation": 69, "lat": 24.0727005005, "lon": -110.361999512, "tz": "America/Mazatlan"},
    {"icao": "MMMX", "iata": "MEX", "name": "Licenciado Benito Juarez International Airport", "city": "Mexico City", "state": "Mexico-City", "country": "MX", "elevation": 7316, "lat": 19.4363002777, "lon": -99.0720977783, "tz": "America/Mexico_City"},
    {"icao": "MNMG", "iata": "MGA", "name": "Augusto C. Sandino (Managua) International Airport", "city": "Managua", "state": "Managua", "country": "NI", "elevation": 194, "lat": 12.141500473, "lon": -86.1681976318, "tz": "America/Managua"},
    {"icao": "MP24", "iata": "", "name": "Chame Airport", "city": "La Paz", "state": "Panama-Oeste", "country": "PA", "elevation": 141, "lat": 8.5884599686, "lon": -79.8897018433, "tz": "America/Panama"},
    {"icao": "MPHO", "iata": "", "name": "Howard Airport", "city": "Panama City", "state": "Panama", "country": "PA", "elevation": 52, "lat": 8.9147901535, "lon": -79.5996017456, "tz": "America/Panama"},
    {"icao": "MPPA", "iata": "BLB", "name": "Howard/Panama Pacifico International Airport", "city": "Panama City", "state": "Panama", "country": "PA", "elevation": 52, "lat": 8.9147901535, "lon": -79.5996017456, "tz": "America/Panama"},
    {"icao": "MPSA", "iata": "SYP", "name": "Ruben Cantu Airport", "city": "Santiago", "state": "Veraguas", "country": "PA", "elevation": 272, "lat": 8.0855998993, "lon": -80.9452972412, "tz": "America/Panama"},
    {"icao": "MROC", "iata": "SJO", "name": "Juan Santamaria International Airport", "city": "San Jose", "state": "Alajuela", "country": "CR", "elevation": 3021, "lat": 9.9938602448, "lon": -84.2088012695, "tz": "America/Costa_Rica"},
    {"icao": "MRPV", "iata": "SYQ", "name": "Tobias Bolanos International Airport", "city": "San Jose", "state": "San-Jose", "country": "CR", "elevation": 3287, "lat": 9.9570503235, "lon": -84.1398010254, "tz": "America/Costa_Rica"},
    {"icao": "MSLG", "iata": "", "name": "La Gloria Airport", "city": "San Salvador", "state": "San-Salvador", "country": "SV", "elevation": 2163, "lat": 13.7147397995, "lon": -89.1913452148, "tz": "America/El_Salvador"},
    {"icao": "MSSS", "iata": "", "name": "Ilopango International Airport", "city": "San Salvador", "state": "San-Salvador", "country": "SV", "elevation": 2021, "lat": 13.6995000839, "lon": -89.1199035645, "tz": "America/El_Salvador"},
    {"icao": "MT81", "iata": "", "name": "Thompson Field", "city": "Belgrade", "state": "Montana", "country": "US", "elevation": 4400, "lat": 45.8035011292, "lon": -111.1380004883, "tz": "America/Denver"},
    {"icao": "MTPP", "iata": "PAP", "name": "Toussaint Louverture International Airport", "city": "Port-au-Prince", "state": "Ouest", "country": "HT", "elevation": 122, "lat": 18.5799999237, "lon": -72.2925033569, "tz": "America/Port-au-Prince"},
    {"icao": "MU00", "iata": "", "name": "Samuel L. Clemens Memorial Airport", "city": "Paris", "state": "Missouri", "country": "US", "elevation": 730, "lat": 39.4444999695, "lon": -91.9517974854, "tz": "America/Chicago"},
    {"icao": "MU40", "iata": "", "name": "Lake Village Airport", "city": "Paris", "state": "Missouri", "country": "US", "elevation": 750, "lat": 39.4606018066, "lon": -92.0103988647, "tz": "America/Chicago"},
    {"icao": "MUCU", "iata": "SCU", "name": "Antonio Maceo International Airport", "city": "Santiago", "state": "Santiago-de-Cuba", "country": "CU", "elevation": 249, "lat": 19.9698009491, "lon": -75.8354034424, "tz": "America/Havana"},
    {"icao": "MUHA", "iata": "HAV", "name": "Jose Marti International Airport", "city": "Havana", "state": "La-Habana", "country": "CU", "elevation": 210, "lat": 22.989200592, "lon": -82.4091033936, "tz": "America/Havana"},
    {"icao": "MULB", "iata": "", "name": "Ciudad Libertad Airport", "city": "Havana", "state": "La-Habana", "country": "CU", "elevation": 98, "lat": 23.0939006805, "lon": -82.4381027222, "tz": "America/Havana"},
    {"icao": "MUMG", "iata": "", "name": "Managua Airport", "city": "Managua", "state": "Mayabeque", "country": "CU", "elevation": 377, "lat": 22.9699001312, "lon": -82.2748031616, "tz": "America/Havana"},
    {"icao": "MUPB", "iata": "UPB", "name": "Playa Baracoa Airport", "city": "Havana", "state": "Artemisa", "country": "CU", "elevation": 102, "lat": 23.0328006744, "lon": -82.5793991089, "tz": "America/Havana"},
    {"icao": "MWCR", "iata": "GCM", "name": "Owen Roberts International Airport", "city": "Georgetown", "state": "", "country": "KY", "elevation": 8, "lat": 19.2928009033, "lon": -81.3576965332, "tz": "America/Cayman"},
    {"icao": "MY71", "iata": "", "name": "Mueller Airport", "city": "Georgetown", "state": "Minnesota", "country": "US", "elevation": 880, "lat": 47.1263999939, "lon": -96.7806015015, "tz": "America/Chicago"},
    {"icao": "MYEF", "iata": "GGT", "name": "Exuma International Airport", "city": "George Town", "state": "Exuma", "country": "BS", "elevation": 9, "lat": 23.5625991821, "lon": -75.8779983521, "tz": "America/Nassau"},
    {"icao": "MYEG", "iata": "", "name": "George Town Airport", "city": "George Town", "state": "Exuma", "country": "BS", "elevation": 5, "lat": 23.4666996002, "lon": -75.7817001343, "tz": "America/Nassau"},
    {"icao": "MYNN", "iata": "NAS", "name": "Lynden Pindling International Airport", "city": "Nassau", "state": "New-Providence", "country": "BS", "elevation": 16, "lat": 25.0389995575, "lon": -77.4662017822, "tz": "America/Nassau"},
    {"icao": "MYPI", "iata": "PID", "name": "Nassau Paradise Island Airport", "city": "Nassau", "state": "New-Providence", "country": "BS", "elevation": 0, "lat": 25.0830001831, "lon": -77.3000030518, "tz": "America/Nassau"},
    {"icao": "MYSM", "iata": "ZSA", "name": "San Salvador Airport", "city": "San Salvador", "state": "San-Salvador", "country": "BS", "elevation": 24, "lat": 24.0632991791, "lon": -74.5240020752, "tz": "America/Nassau"},
    {"icao": "NC82", "iata": "", "name": "Dublin Field", "city": "Dublin", "state": "North-Carolina", "country": "US", "elevation": 126, "lat": 34.6696014404, "lon": -78.7024993896, "tz": "America/New_York"},
    {"icao": "NCRG", "iata": "RAR", "name": "Rarotonga International Airport", "city": "Avarua", "state": "", "country": "CK", "elevation": 19, "lat": -21.2026996613, "lon": -159.8059997559, "tz": "Pacific/Rarotonga"},
    {"icao": "NFTF", "iata": "TBU", "name": "Fua'amotu International Airport", "city": "Nuku'alofa", "state": "Tongatapu", "country": "TO", "elevation": 126, "lat": -21.2411994934, "lon": -175.1499938965, "tz": "Pacific/Tongatapu"},
    {"icao": "NGFU", "iata": "FUN", "name": "Funafuti International Airport", "city": "Funafuti", "state": "Funafuti", "country": "TV", "elevation": 0, "lat": -8.525, "lon": 179.195999, "tz": "Pacific/Funafuti"},
    {"icao": "NGTA", "iata": "TRW", "name": "Bonriki International Airport", "city": "Tarawa", "state": "Gilbert-Islands", "country": "KI", "elevation": 9, "lat": 1.3816399574, "lon": 173.1470031738, "tz": "Pacific/Tarawa"},
    {"icao": "NIUE", "iata": "IUE", "name": "Niue International Airport", "city": "Alofi", "state": "", "country": "NU", "elevation": 209, "lat": -19.0790309906, "lon": -169.9255981445, "tz": "Pacific/Niue"},
    {"icao": "NM21", "iata": "", "name": "Patterson Ranch Airport", "city": "Stanley", "state": "New-Mexico", "country": "US", "elevation": 6696, "lat": 35.1749992371, "lon": -105.8700027466, "tz": "America/Denver"},
    {"icao": "NM63", "iata": "", "name": "Big Sky Airport", "city": "Stanley", "state": "New-Mexico", "country": "US", "elevation": 6200, "lat": 35.1657981873, "lon": -106.0120010376, "tz": "America/Denver"},
    {"icao": "NSFA", "iata": "APW", "name": "Faleolo International Airport", "city": "Apia", "state": "A'ana", "country": "WS", "elevation": 58, "lat": -13.8299999237, "lon": -172.0079956055, "tz": "Pacific/Apia"},
    {"icao": "NSFI", "iata": "FGI", "name": "Fagali'i Airport", "city": "Apia", "state": "Tuamasaga", "country": "WS", "elevation": 131, "lat": -13.8486995697, "lon": -171.740005493, "tz": "Pacific/Apia"},
    {"icao": "NSTU", "iata": "PPG", "name": "Pago Pago International Airport", "city": "Pago Pago", "state": "Eastern-District", "country": "AS", "elevation": 32, "lat": -14.3310003281, "lon": -170.710006714, "tz": "Pacific/Pago_Pago"},
    {"icao": "NTAA", "iata": "PPT", "name": "Faa'a International Airport", "city": "Papeete", "state": "Iles-du-Vent", "country": "PF", "elevation": 5, "lat": -17.5536994934, "lon": -149.606994629, "tz": "Pacific/Tahiti"},
    {"icao": "NV72", "iata": "", "name": "Sweetwater (USMC) Airport", "city": "Wellington", "state": "Nevada", "country": "US", "elevation": 6837, "lat": 38.5097999573, "lon": -119.217002869, "tz": "America/Los_Angeles"},
    {"icao": "NV97", "iata": "", "name": "Desert Creek Airport", "city": "Wellington", "state": "Nevada", "country": "US", "elevation": 5358, "lat": 38.6842002869, "lon": -119.3219985962, "tz": "America/Los_Angeles"},
    {"icao": "NWWM", "iata": "GEA", "name": "Noumea Magenta Airport", "city": "Noumea", "state": "South-Province", "country": "NC", "elevation": 10, "lat": -22.2583007813, "lon": 166.4730072021, "tz": "Pacific/Noumea"},
    {"icao": "NWWW", "iata": "NOU", "name": "La Tontouta International Airport", "city": "Noumea", "state": "South-Province", "country": "NC", "elevation": 52, "lat": -22.0146007538, "lon": 166.2129974365, "tz": "Pacific/Noumea"},
    {"icao": "NY58", "iata": "", "name": "Snow Field", "city": "Amsterdam", "state": "New-York", "country": "US", "elevation": 775, "lat": 42.9566993713, "lon": -74.0814971924, "tz": "America/New_York"},
    {"icao": "NY89", "iata": "", "name": "Fairbank Farms Airport", "city": "Jamestown", "state": "New-York", "country": "US", "elevation": 1350, "lat": 42.0801010132, "lon": -79.3914031982, "tz": "America/New_York"},
    {"icao": "NZHN", "iata": "HLZ", "name": "Hamilton International Airport", "city": "Hamilton", "state": "Waikato", "country": "NZ", "elevation": 172, "lat": -37.8666992188, "lon": 175.332000732, "tz": "Pacific/Auckland"},
    {"icao": "NZWN", "iata": "WLG", "name": "Wellington International Airport", "city": "Wellington", "state": "Wellington", "country": "NZ", "elevation": 41, "lat": -41.3272018433, "lon": 174.804992676, "tz": "Pacific/Auckland"},
    {"icao": "OAKB", "iata": "KBL", "name": "Kabul International Airport", "city": "Kabul", "state": "Kabul", "country": "AF", "elevation": 5877, "lat": 34.5658988953, "lon": 69.2123031616, "tz": "Asia/Kabul"},
    {"icao": "OBBI", "iata": "BAH", "name": "Bahrain International Airport", "city": "Manama", "state": "Muharraq", "country": "BH", "elevation": 6, "lat": 26.2707996368, "lon": 50.6335983276, "tz": "Asia/Bahrain"},
    {"icao": "OERK", "iata": "RUH", "name": "King Khaled International Airport", "city": "Riyadh", "state": "", "country": "SA", "elevation": 2049, "lat": 24.9575996399, "lon": 46.6987991333, "tz": "Asia/Riyadh"},
    {"icao": "OERY", "iata": "XXN", "name": "Riyadh Air Base", "city": "Riyadh", "state": "Ar-Riya\u1e11", "country": "SA", "elevation": 2082, "lat": 24.7098007202, "lon": 46.7252006531, "tz": "Asia/Riyadh"},
    {"icao": "OH88", "iata": "", "name": "Roberts Airport", "city": "London", "state": "Ohio", "country": "US", "elevation": 1066, "lat": 39.8527984619, "lon": -83.4704971313, "tz": "America/New_York"},
    {"icao": "OH91", "iata": "", "name": "Dave Rice Ultralightport", "city": "Lima", "state": "Ohio", "country": "US", "elevation": 775, "lat": 40.70009995, "lon": -84.23439789, "tz": "America/New_York"},
    {"icao": "OI52", "iata": "", "name": "Lyons Field", "city": "Jamestown", "state": "Ohio", "country": "US", "elevation": 1045, "lat": 39.6250991821, "lon": -83.7833023071, "tz": "America/New_York"},
    {"icao": "OIIE", "iata": "IKA", "name": "Imam Khomeini International Airport", "city": "Tehran", "state": "Tehran", "country": "IR", "elevation": 3305, "lat": 35.4160995483, "lon": 51.1521987915, "tz": "Asia/Tehran"},
    {"icao": "OIII", "iata": "THR", "name": "Mehrabad International Airport", "city": "Tehran", "state": "Tehran", "country": "IR", "elevation": 3962, "lat": 35.689201355, "lon": 51.3134002686, "tz": "Asia/Tehran"},
    {"icao": "OJAI", "iata": "AMM", "name": "Queen Alia International Airport", "city": "Amman", "state": "Amman", "country": "JO", "elevation": 2395, "lat": 31.7226009369, "lon": 35.9931983948, "tz": "Asia/Amman"},
    {"icao": "OJAM", "iata": "ADJ", "name": "Amman-Marka International Airport", "city": "Amman", "state": "Amman", "country": "JO", "elevation": 2555, "lat": 31.972700119, "lon": 35.9916000366, "tz": "Asia/Amman"},
    {"icao": "OKBK", "iata": "KWI", "name": "Kuwait International Airport", "city": "Kuwait City", "state": "", "country": "KW", "elevation": 206, "lat": 29.226600647, "lon": 47.9688987732, "tz": "Asia/Kuwait"},
    {"icao": "OLBA", "iata": "BEY", "name": "Beirut Rafic Hariri International Airport", "city": "Beirut", "state": "Mont-Liban", "country": "LB", "elevation": 87, "lat": 33.8208999634, "lon": 35.4883995056, "tz": "Asia/Beirut"},
    {"icao": "OLKA", "iata": "KYE", "name": "Rene Mouawad Air Base", "city": "Tripoli", "state": "Liban-Nord", "country": "LB", "elevation": 75, "lat": 34.5892982483, "lon": 36.0112991333, "tz": "Asia/Beirut"},
    {"icao": "OMAA", "iata": "AUH", "name": "Abu Dhabi International Airport", "city": "Abu Dhabi", "state": "Abu-Dhabi", "country": "AE", "elevation": 88, "lat": 24.4330005646, "lon": 54.6511001587, "tz": "Asia/Dubai"},
    {"icao": "OOMS", "iata": "MCT", "name": "Muscat International Airport", "city": "Muscat", "state": "Muscat", "country": "OM", "elevation": 48, "lat": 23.5932998657, "lon": 58.2844009399, "tz": "Asia/Muscat"},
    {"icao": "OPRN", "iata": "ISB", "name": "Benazir Bhutto International Airport", "city": "Islamabad", "state": "Punjab", "country": "PK", "elevation": 1668, "lat": 33.6166992188, "lon": 73.0991973877, "tz": "Asia/Karachi"},
    {"icao": "ORBI", "iata": "BGW", "name": "Baghdad International Airport", "city": "Baghdad", "state": "Baghdad", "country": "IQ", "elevation": 114, "lat": 33.2625007629, "lon": 44.2346000671, "tz": "Asia/Baghdad"},
    {"icao": "OSDI", "iata": "DAM", "name": "Damascus International Airport", "city": "Damascus", "state": "Rif-dimashq", "country": "SY", "elevation": 2020, "lat": 33.4114990234, "lon": 36.5155982971, "tz": "Asia/Damascus"},
    {"icao": "OTBD", "iata": "", "name": "Doha International Airport", "city": "Doha", "state": "Baladiyat-ad-Daw\u1e29ah", "country": "QA", "elevation": 35, "lat": 25.261100769, "lon": 51.5651016235, "tz": "Asia/Qatar"},
    {"icao": "OTHH", "iata": "DOH", "name": "Hamad International Airport", "city": "Doha", "state": "Baladiyat-ad-Daw\u1e29ah", "country": "QA", "elevation": 13, "lat": 25.2605946, "lon": 51.6137665, "tz": "Asia/Qatar"},
    {"icao": "PA33", "iata": "", "name": "Lars/Private Airport", "city": "Athens", "state": "Pennsylvania", "country": "US", "elevation": 1300, "lat": 41.9500999451, "lon": -76.483001709, "tz": "America/New_York"},
    {"icao": "PGUM", "iata": "GUM", "name": "Antonio B. Won Pat International Airport", "city": "Hagatna", "state": "Barrigada", "country": "GU", "elevation": 298, "lat": 13.4834003448, "lon": 144.796005249, "tz": "Pacific/Guam"},
    {"icao": "PS46", "iata": "", "name": "Graystrip Airport", "city": "Dublin", "state": "Pennsylvania", "country": "US", "elevation": 642, "lat": 40.3623008728, "lon": -75.1801986694, "tz": "America/New_York"},
    {"icao": "RCTP", "iata": "TPE", "name": "Taiwan Taoyuan International Airport", "city": "Taipei", "state": "Taiwan", "country": "TW", "elevation": 106, "lat": 25.0776996613, "lon": 121.233001709, "tz": "Asia/Taipei"},
    {"icao": "RJAA", "iata": "NRT", "name": "Narita International Airport", "city": "Tokyo", "state": "Chiba", "country": "JP", "elevation": 141, "lat": 35.7647018433, "lon": 140.3860015869, "tz": "Asia/Tokyo"},
    {"icao": "RJTC", "iata": "", "name": "Tachikawa Airfield", "city": "Tokyo", "state": "Tokyo", "country": "JP", "elevation": 312, "lat": 35.7108001709, "lon": 139.4029998779, "tz": "Asia/Tokyo"},
    {"icao": "RJTF", "iata": "", "name": "Chofu Airport", "city": "Tokyo", "state": "Tokyo", "country": "JP", "elevation": 141, "lat": 35.6716995239, "lon": 139.5279998779, "tz": "Asia/Tokyo"},
    {"icao": "RJTJ", "iata": "", "name": "Iruma Air Base", "city": "Tokyo", "state": "Saitama", "country": "JP", "elevation": 295, "lat": 35.8418998718, "lon": 139.4109954834, "tz": "Asia/Tokyo"},
    {"icao": "RJTT", "iata": "HND", "name": "Tokyo International Airport", "city": "Tokyo", "state": "Tokyo", "country": "JP", "elevation": 35, "lat": 35.5522994995, "lon": 139.7799987793, "tz": "Asia/Tokyo"},
    {"icao": "RKSI", "iata": "ICN", "name": "Incheon International Airport", "city": "Seoul", "state": "Incheon", "country": "KR", "elevation": 23, "lat": 37.4691009521, "lon": 126.4509963989, "tz": "Asia/Seoul"},
    {"icao": "RKSS", "iata": "GMP", "name": "Gimpo International Airport", "city": "Seoul", "state": "Seoul", "country": "KR", "elevation": 58, "lat": 37.5583000183, "lon": 126.791000366, "tz": "Asia/Seoul"},
    {"icao": "RPLL", "iata": "MNL", "name": "Ninoy Aquino International Airport", "city": "Manila", "state": "", "country": "PH", "elevation": 75, "lat": 14.508600235, "lon": 121.019996643, "tz": "Asia/Manila"},
    {"icao": "RPUH", "iata": "SJI", "name": "San Jose Airport", "city": "San Jose", "state": "Mimaropa", "country": "PH", "elevation": 14, "lat": 12.3614997864, "lon": 121.04699707, "tz": "Asia/Manila"},
    {"icao": "RPVS", "iata": "EUQ", "name": "Evelio Javier Airport", "city": "San Jose", "state": "Western-Visayas", "country": "PH", "elevation": 23, "lat": 10.765999794, "lon": 121.932998657, "tz": "Asia/Manila"},
    {"icao": "SA40", "iata": "", "name": "San Juan Aeroclub Airport", "city": "San Juan", "state": "San-Juan", "country": "AR", "elevation": 2079, "lat": -31.6028003693, "lon": -68.5473022461, "tz": "America/Argentina/San_Juan"},
    {"icao": "SABE", "iata": "AEP", "name": "Jorge Newbery Airpark", "city": "Buenos Aires", "state": "Buenos-Aires-F-D-", "country": "AR", "elevation": 18, "lat": -34.5592, "lon": -58.4156, "tz": "America/Argentina/Buenos_Aires"},
    {"icao": "SAMP", "iata": "", "name": "La Paz Airport", "city": "La Paz", "state": "Mendoza", "country": "AR", "elevation": 0, "lat": -33.467, "lon": -67.55, "tz": "America/Argentina/Mendoza"},
    {"icao": "SANU", "iata": "UAQ", "name": "Domingo Faustino Sarmiento Airport", "city": "San Juan", "state": "San-Juan", "country": "AR", "elevation": 1958, "lat": -31.5715007782, "lon": -68.4181976318, "tz": "America/Argentina/San_Juan"},
    {"icao": "SBBR", "iata": "BSB", "name": "Presidente Juscelino Kubistschek International Airport", "city": "Brasilia", "state": "Federal-District", "country": "BR", "elevation": 3497, "lat": -15.8691673279, "lon": -47.9208335876, "tz": "America/Sao_Paulo"},
    {"icao": "SCBQ", "iata": "", "name": "El Bosque Airport", "city": "Santiago", "state": "Santiago-Metropolitan", "country": "CL", "elevation": 1844, "lat": -33.5617980957, "lon": -70.6884002686, "tz": "America/Santiago"},
    {"icao": "SCEL", "iata": "SCL", "name": "Comodoro Arturo Merino Benitez International Airport", "city": "Santiago", "state": "Santiago-Metropolitan", "country": "CL", "elevation": 1555, "lat": -33.3930015564, "lon": -70.7857971191, "tz": "America/Santiago"},
    {"icao": "SCHC", "iata": "", "name": "Chicureo Airport", "city": "Santiago", "state": "Santiago-Metropolitan", "country": "CL", "elevation": 1886, "lat": -33.2677764893, "lon": -70.6472244263, "tz": "America/Santiago"},
    {"icao": "SCLC", "iata": "", "name": "Municipal de Vitacura Airport", "city": "Santiago", "state": "Santiago-Metropolitan", "country": "CL", "elevation": 2274, "lat": -33.3807983398, "lon": -70.5821990967, "tz": "America/Santiago"},
    {"icao": "SCSN", "iata": "", "name": "Santo Domingo Airport", "city": "Santo Domingo", "state": "Valparaiso", "country": "CL", "elevation": 246, "lat": -33.6563987732, "lon": -71.614402771, "tz": "America/Santiago"},
    {"icao": "SCTB", "iata": "", "name": "Eulogio Sanchez Airport", "city": "Santiago", "state": "Santiago-Metropolitan", "country": "CL", "elevation": 2129, "lat": -33.4562988281, "lon": -70.5466995239, "tz": "America/Santiago"},
    {"icao": "SCTO", "iata": "ZIC", "name": "Victoria Airport", "city": "Victoria", "state": "Araucania", "country": "CL", "elevation": 1148, "lat": -38.2456016541, "lon": -72.3486022949, "tz": "America/Santiago"},
    {"icao": "SCVH", "iata": "", "name": "La Victoria de Chacabuco Airport", "city": "Santiago", "state": "Santiago-Metropolitan", "country": "CL", "elevation": 2139, "lat": -33.0508346558, "lon": -70.7088851929, "tz": "America/Santiago"},
    {"icao": "SCVO", "iata": "", "name": "Maria Ester Airport", "city": "Victoria", "state": "Araucania", "country": "CL", "elevation": 978, "lat": -38.2319450378, "lon": -72.4833297729, "tz": "America/Santiago"},
    {"icao": "SEGZ", "iata": "", "name": "Gualaquiza Airport", "city": "Santiago", "state": "Morona-Santiago", "country": "EC", "elevation": 2640, "lat": -3.4232099056, "lon": -78.5670013428, "tz": "America/Guayaquil"},
    {"icao": "SEQM", "iata": "UIO", "name": "Nuevo Aeropuerto Internacional Mariscal Sucre", "city": "Quito", "state": "Pichincha", "country": "EC", "elevation": 9200, "lat": -0.1291666667, "lon": -78.3575, "tz": "America/Guayaquil"},
    {"icao": "SFAL", "iata": "PSY", "name": "Stanley Airport", "city": "Stanley", "state": "", "country": "FK", "elevation": 75, "lat": -51.6856994629, "lon": -57.7775993347, "tz": "Atlantic/Stanley"},
    {"icao": "SGAS", "iata": "ASU", "name": "Silvio Pettirossi International Airport", "city": "Asuncion", "state": "Central", "country": "PY", "elevation": 292, "lat": -25.2399997711, "lon": -57.5200004578, "tz": "America/Asuncion"},
    {"icao": "SIQE", "iata": "", "name": "Botelho Airport", "city": "Brasilia", "state": "Goias", "country": "BR", "elevation": 3399, "lat": -15.9416666031, "lon": -47.7202796936, "tz": "America/Sao_Paulo"},
    {"icao": "SKBO", "iata": "BOG", "name": "El Dorado International Airport", "city": "Bogota", "state": "Bogota-D-C-", "country": "CO", "elevation": 8361, "lat": 4.70159, "lon": -74.1469, "tz": "America/Bogota"},
    {"icao": "SKMA", "iata": "", "name": "Madrid Air Base", "city": "Madrid", "state": "Cundinamarca", "country": "CO", "elevation": 8325, "lat": 4.7278, "lon": -74.2754, "tz": "America/Bogota"},
    {"icao": "SMZO", "iata": "ORG", "name": "Zorg en Hoop Airport", "city": "Paramaribo", "state": "Paramaribo", "country": "SR", "elevation": 10, "lat": 5.8110799789, "lon": -55.190700531, "tz": "America/Paramaribo"},
    {"icao": "SN42", "iata": "", "name": "Harrod Airport", "city": "Ottawa", "state": "Kansas", "country": "US", "elevation": 990, "lat": 38.5614013672, "lon": -95.2081985474, "tz": "America/Chicago"},
    {"icao": "SN57", "iata": "", "name": "Witham Airport", "city": "Ottawa", "state": "Kansas", "country": "US", "elevation": 1110, "lat": 38.698600769, "lon": -95.3003005981, "tz": "America/Chicago"},
    {"icao": "SN97", "iata": "", "name": "Brollier Airport", "city": "Moscow", "state": "Kansas", "country": "US", "elevation": 3056, "lat": 37.3264007568, "lon": -101.1979980469, "tz": "America/Chicago"},
    {"icao": "SPJC", "iata": "LIM", "name": "Jorge Chavez International Airport", "city": "Lima", "state": "Callao", "country": "PE", "elevation": 113, "lat": -12.021900177, "lon": -77.1143035889, "tz": "America/Lima"},
    {"icao": "SSGP", "iata": "", "name": "Piquet Airport", "city": "Brasilia", "state": "Federal-District", "country": "BR", "elevation": 3281, "lat": -15.8538894653, "lon": -47.806388855, "tz": "America/Sao_Paulo"},
    {"icao": "SSST", "iata": "", "name": "Santiago Airport", "city": "Santiago", "state": "Rio-Grande-do-Sul", "country": "BR", "elevation": 1460, "lat": -29.2150001526, "lon": -54.8422203064, "tz": "America/Sao_Paulo"},
    {"icao": "SUAA", "iata": "", "name": "Angel S Adami Airport", "city": "Montevideo", "state": "Montevideo", "country": "UY", "elevation": 174, "lat": -34.7891998291, "lon": -56.2647018433, "tz": "America/Montevideo"},
    {"icao": "SUMU", "iata": "MVD", "name": "Carrasco International /General C L Berisso Airport", "city": "Montevideo", "state": "Canelones", "country": "UY", "elevation": 105, "lat": -34.8384017944, "lon": -56.0307998657, "tz": "America/Montevideo"},
    {"icao": "SVCS", "iata": "", "name": "Oscar Machado Zuluaga Airport", "city": "Caracas", "state": "Miranda", "country": "VE", "elevation": 2145, "lat": 10.286110878, "lon": -66.8161087036, "tz": "America/Caracas"},
    {"icao": "SVMI", "iata": "CCS", "name": "Maiquetia (Simon Bolivar Internacional) Airport", "city": "Caracas", "state": "Vargas", "country": "VE", "elevation": 235, "lat": 10.6031169891, "lon": -66.9905853271, "tz": "America/Caracas"},
    {"icao": "SVSO", "iata": "STD", "name": "Mayor Buenaventura Vivas International Airport", "city": "Santo Domingo", "state": "Tachira", "country": "VE", "elevation": 1083, "lat": 7.5653800964, "lon": -72.0351028442, "tz": "America/Caracas"},
    {"icao": "SWPV", "iata": "", "name": "Planaltina Airport", "city": "Brasilia", "state": "Federal-District", "country": "BR", "elevation": 3806, "lat": -15.6788892746, "lon": -47.5441665649, "tz": "America/Sao_Paulo"},
    {"icao": "SYCJ", "iata": "GEO", "name": "Cheddi Jagan International Airport", "city": "Georgetown", "state": "Demerara-Mahaica", "country": "GY", "elevation": 95, "lat": 6.4985499382, "lon": -58.2541007996, "tz": "America/Guyana"},
    {"icao": "TBPB", "iata": "BGI", "name": "Sir Grantley Adams International Airport", "city": "Bridgetown", "state": "Christ-Church", "country": "BB", "elevation": 169, "lat": 13.0746002197, "lon": -59.4925003052, "tz": "America/Barbados"},
    {"icao": "TDPD", "iata": "DOM", "name": "Melville Hall Airport", "city": "Marigot", "state": "Saint-Andrew", "country": "DM", "elevation": 73, "lat": 15.5469999313, "lon": -61.2999992371, "tz": "America/Dominica"},
    {"icao": "TFFJ", "iata": "SBH", "name": "Gustaf III Airport", "city": "Gustavia", "state": "", "country": "BL", "elevation": 49, "lat": 17.9043998718, "lon": -62.8436012268, "tz": "America/St_Barthelemy"},
    {"icao": "TGPY", "iata": "GND", "name": "Point Salines International Airport", "city": "Saint George's", "state": "Saint-George", "country": "GD", "elevation": 41, "lat": 12.0041999817, "lon": -61.7862014771, "tz": "America/Grenada"},
    {"icao": "TIST", "iata": "STT", "name": "Cyril E. King Airport", "city": "Charlotte Amalie", "state": "Saint-Thomas-Island", "country": "VI", "elevation": 23, "lat": 18.3372993469, "lon": -64.9733963013, "tz": "America/St_Thomas"},
    {"icao": "TJIG", "iata": "SIG", "name": "Fernando Luis Ribas Dominicci Airport", "city": "San Juan", "state": "San-Juan", "country": "PR", "elevation": 10, "lat": 18.4568004608, "lon": -66.0980987549, "tz": "America/Puerto_Rico"},
    {"icao": "TJSJ", "iata": "SJU", "name": "Luis Munoz Marin International Airport", "city": "San Juan", "state": "Carolina", "country": "PR", "elevation": 9, "lat": 18.4393997192, "lon": -66.0018005371, "tz": "America/Puerto_Rico"},
    {"icao": "TKPK", "iata": "SKB", "name": "Robert L. Bradshaw International Airport", "city": "Basseterre", "state": "Saint-George-Basseterre", "country": "KN", "elevation": 170, "lat": 17.3111991882, "lon": -62.7187004089, "tz": "America/St_Kitts"},
    {"icao": "TLPC", "iata": "SLU", "name": "George F. L. Charles Airport", "city": "Castries", "state": "Castries", "country": "LC", "elevation": 22, "lat": 14.0202, "lon": -60.992901, "tz": "America/St_Lucia"},
    {"icao": "TNCA", "iata": "AUA", "name": "Queen Beatrix International Airport", "city": "Oranjestad", "state": "", "country": "AW", "elevation": 60, "lat": 12.5013999939, "lon": -70.0151977539, "tz": "America/Aruba"},
    {"icao": "TNCC", "iata": "CUR", "name": "Hato International Airport", "city": "Willemstad", "state": "", "country": "CW", "elevation": 29, "lat": 12.1888999939, "lon": -68.9598007202, "tz": "America/Curacao"},
    {"icao": "TQPF", "iata": "AXA", "name": "Wallblake Airport", "city": "The Valley", "state": "", "country": "AI", "elevation": 127, "lat": 18.2047996521, "lon": -63.0550994873, "tz": "America/Anguilla"},
    {"icao": "TTPP", "iata": "POS", "name": "Piarco International Airport", "city": "Port of Spain", "state": "Tunapuna/Piarco", "country": "TT", "elevation": 58, "lat": 10.5953998566, "lon": -61.3372001648, "tz": "America/Port_of_Spain"},
    {"icao": "TUPJ", "iata": "EIS", "name": "Terrance B. Lettsome International Airport", "city": "Road Town", "state": "", "country": "VG", "elevation": 15, "lat": 18.4447994232, "lon": -64.5429992676, "tz": "America/Tortola"},
    {"icao": "TVSV", "iata": "SVD", "name": "E. T. Joshua Airport", "city": "Kingstown", "state": "Saint-George", "country": "VC", "elevation": 66, "lat": 13.1443004608, "lon": -61.210899353, "tz": "America/St_Vincent"},
    {"icao": "TX25", "iata": "", "name": "Lochridge Ranch Airport", "city": "Athens", "state": "Texas", "country": "US", "elevation": 391, "lat": 31.9892997742, "lon": -95.9511032104, "tz": "America/Chicago"},
    {"icao": "TX92", "iata": "", "name": "Green Airport", "city": "Georgetown", "state": "Texas", "country": "US", "elevation": 850, "lat": 30.5960006714, "lon": -97.6694030762, "tz": "America/Chicago"},
    {"icao": "TXKF", "iata": "BDA", "name": "L.F. Wade International International Airport", "city": "Hamilton", "state": "Saint-George\u02bcs", "country": "BM", "elevation": 12, "lat": 32.3639984131, "lon": -64.6787033081, "tz": "Atlantic/Bermuda"},
    {"icao": "UACC", "iata": "TSE", "name": "Astana International Airport", "city": "Astana", "state": "Aqmola", "country": "KZ", "elevation": 1165, "lat": 51.0222015381, "lon": 71.4669036865, "tz": "Asia/Almaty"},
    {"icao": "UAFM", "iata": "FRU", "name": "Manas International Airport", "city": "Bishkek", "state": "Chuey", "country": "KG", "elevation": 2058, "lat": 43.0612983704, "lon": 74.4776000977, "tz": "Asia/Bishkek"},
    {"icao": "UBBB", "iata": "GYD", "name": "Heydar Aliyev International Airport", "city": "Baku", "state": "Baki", "country": "AZ", "elevation": 10, "lat": 40.4674987793, "lon": 50.0466995239, "tz": "Asia/Baku"},
    {"icao": "UD21", "iata": "", "name": "Yerevan Yegvard Airport", "city": "Yerevan", "state": "Kotayk", "country": "AM", "elevation": 4416, "lat": 40.2941017151, "lon": 44.5646018982, "tz": "Asia/Yerevan"},
    {"icao": "UDYE", "iata": "", "name": "Erebuni Airport", "city": "Yerevan", "state": "Yerevan", "country": "AM", "elevation": 2948, "lat": 40.1221008301, "lon": 44.4650001526, "tz": "Asia/Yerevan"},
    {"icao": "UDYZ", "iata": "EVN", "name": "Zvartnots International Airport", "city": "Yerevan", "state": "", "country": "AM", "elevation": 2838, "lat": 40.1473007202, "lon": 44.3959007263, "tz": "Asia/Yerevan"},
    {"icao": "UGTB", "iata": "TBS", "name": "Tbilisi International Airport", "city": "Tbilisi", "state": "", "country": "GE", "elevation": 1624, "lat": 41.6692008972, "lon": 44.95470047, "tz": "Asia/Tbilisi"},
    {"icao": "UMLI", "iata": "", "name": "Minsk Machulishchy Airport", "city": "Minsk", "state": "Minsk", "country": "BY", "elevation": 699, "lat": 53.7733001709, "lon": 27.5799999237, "tz": "Europe/Minsk"},
    {"icao": "UMMB", "iata": "", "name": "Borovaya Airfield", "city": "Minsk", "state": "Minsk", "country": "BY", "elevation": 0, "lat": 53.5699996948, "lon": 27.3899993896, "tz": "Europe/Minsk"},
    {"icao": "UMMM", "iata": "MHP", "name": "Minsk 1 Airport", "city": "Minsk", "state": "", "country": "BY", "elevation": 748, "lat": 53.8644981384, "lon": 27.5396995544, "tz": "Europe/Minsk"},
    {"icao": "UMMS", "iata": "MSQ", "name": "Minsk International Airport", "city": "Minsk", "state": "Minsk", "country": "BY", "elevation": 670, "lat": 53.8824996948, "lon": 28.0307006836, "tz": "Europe/Minsk"},
    {"icao": "UTAA", "iata": "ASB", "name": "Ashgabat Airport", "city": "Ashgabat", "state": "Ashgabat", "country": "TM", "elevation": 692, "lat": 37.9868011475, "lon": 58.361000061, "tz": "Asia/Ashgabat"},
    {"icao": "UTDD", "iata": "DYU", "name": "Dushanbe Airport", "city": "Dushanbe", "state": "Dushanbe", "country": "TJ", "elevation": 2575, "lat": 38.5433006287, "lon": 68.8249969482, "tz": "Asia/Dushanbe"},
    {"icao": "UTTP", "iata": "", "name": "Tashkent East Airport", "city": "Tashkent", "state": "Toshkent", "country": "UZ", "elevation": 1574, "lat": 41.3126983643, "lon": 69.3914031982, "tz": "Asia/Tashkent"},
    {"icao": "UTTT", "iata": "TAS", "name": "Tashkent International Airport", "city": "Tashkent", "state": "Toshkent-Shahri", "country": "UZ", "elevation": 1417, "lat": 41.257900238, "lon": 69.2811965942, "tz": "Asia/Samarkand"},
    {"icao": "UUBB", "iata": "BKA", "name": "Bykovo Airport", "city": "Moscow", "state": "Moscow-Oblast", "country": "RU", "elevation": 427, "lat": 55.6171989441, "lon": 38.0600013733, "tz": "Europe/Moscow"},
    {"icao": "UUBM", "iata": "", "name": "Myachkovo Airport", "city": "Moscow", "state": "Moscow-Oblast", "country": "RU", "elevation": 410, "lat": 55.5600013733, "lon": 37.9850006104, "tz": "Europe/Moscow"},
    {"icao": "UUDD", "iata": "DME", "name": "Domodedovo International Airport", "city": "Moscow", "state": "Moscow-Oblast", "country": "RU", "elevation": 588, "lat": 55.4087982178, "lon": 37.9062995911, "tz": "Europe/Moscow"},
    {"icao": "UUEE", "iata": "SVO", "name": "Sheremetyevo International Airport", "city": "Moscow", "state": "Moscow-Oblast", "country": "RU", "elevation": 622, "lat": 55.9725990295, "lon": 37.4146003723, "tz": "Europe/Moscow"},
    {"icao": "UUMO", "iata": "", "name": "Ostafyevo International Airport", "city": "Moscow", "state": "Moscow-Oblast", "country": "RU", "elevation": 568, "lat": 55.5116996765, "lon": 37.5071983337, "tz": "Europe/Moscow"},
    {"icao": "UUMU", "iata": "", "name": "Chkalovskiy Airport", "city": "Moscow", "state": "Moscow-Oblast", "country": "RU", "elevation": 499, "lat": 55.8782997131, "lon": 38.0616989136, "tz": "Europe/Moscow"},
    {"icao": "UUUS", "iata": "", "name": "Tushino Airport", "city": "Moscow", "state": "Moscow", "country": "RU", "elevation": 420, "lat": 55.8183326721, "lon": 37.4266662598, "tz": "Europe/Moscow"},
    {"icao": "UUWW", "iata": "VKO", "name": "Vnukovo International Airport", "city": "Moscow", "state": "Moscow", "country": "RU", "elevation": 685, "lat": 55.5914993286, "lon": 37.2615013123, "tz": "Europe/Moscow"},
    {"icao": "VCBI", "iata": "CMB", "name": "Bandaranaike International Colombo Airport", "city": "Colombo", "state": "Western", "country": "LK", "elevation": 30, "lat": 7.1807599068, "lon": 79.8841018677, "tz": "Asia/Colombo"},
    {"icao": "VCCC", "iata": "RML", "name": "Colombo Ratmalana Airport", "city": "Colombo", "state": "Western", "country": "LK", "elevation": 22, "lat": 6.8219900131, "lon": 79.8861999512, "tz": "Asia/Colombo"},
    {"icao": "VDPP", "iata": "PNH", "name": "Phnom Penh International Airport", "city": "Phnom Penh", "state": "", "country": "KH", "elevation": 40, "lat": 11.5466003418, "lon": 104.84400177, "tz": "Asia/Phnom_Penh"},
    {"icao": "VG29", "iata": "", "name": "Branham Mill Airpark", "city": "Warsaw", "state": "Virginia", "country": "US", "elevation": 100, "lat": 37.9707984924, "lon": -76.7097015381, "tz": "America/New_York"},
    {"icao": "VGHS", "iata": "DAC", "name": "Dhaka / Hazrat Shahjalal International Airport", "city": "Dhaka", "state": "Dhaka", "country": "BD", "elevation": 30, "lat": 23.843347, "lon": 90.397783, "tz": "Asia/Dhaka"},
    {"icao": "VGTJ", "iata": "", "name": "Tejgaon Airport", "city": "Dhaka", "state": "Dhaka", "country": "BD", "elevation": 24, "lat": 23.778799057, "lon": 90.3826980591, "tz": "Asia/Dhaka"},
    {"icao": "VIDP", "iata": "DEL", "name": "Indira Gandhi International Airport", "city": "New Delhi", "state": "NCT", "country": "IN", "elevation": 777, "lat": 28.5664997101, "lon": 77.1031036377, "tz": "Asia/Kolkata"},
    {"icao": "VLVT", "iata": "VTE", "name": "Wattay International Airport", "city": "Vientiane", "state": "Vientiane-Prefecture", "country": "LA", "elevation": 564, "lat": 17.9883003235, "lon": 102.56300354, "tz": "Asia/Vientiane"},
    {"icao": "VNKT", "iata": "KTM", "name": "Tribhuvan International Airport", "city": "Kathmandu", "state": "Central-Region", "country": "NP", "elevation": 4390, "lat": 27.6965999603, "lon": 85.3591003418, "tz": "Asia/Kathmandu"},
    {"icao": "VRMM", "iata": "MLE", "name": "Male International Airport", "city": "Male", "state": "Kaafu-Atoll", "country": "MV", "elevation": 6, "lat": 4.1918301582, "lon": 73.5290985107, "tz": "Indian/Maldives"},
    {"icao": "VT31", "iata": "", "name": "Carriers Skypark Airport", "city": "Washington", "state": "Vermont", "country": "US", "elevation": 1600, "lat": 44.1111984253, "lon": -72.4440002441, "tz": "America/New_York"},
    {"icao": "VTBD", "iata": "DMK", "name": "Don Mueang International Airport", "city": "Bangkok", "state": "Bangkok", "country": "TH", "elevation": 9, "lat": 13.9125995636, "lon": 100.6070022583, "tz": "Asia/Bangkok"},
    {"icao": "VTBS", "iata": "BKK", "name": "Suvarnabhumi Airport", "city": "Bangkok", "state": "Samut-Prakan", "country": "TH", "elevation": 5, "lat": 13.6810998917, "lon": 100.7470016479, "tz": "Asia/Bangkok"},
    {"icao": "VVGL", "iata": "", "name": "Gia Lam Air Base", "city": "Hanoi", "state": "Ha-N\u1ed9i", "country": "VN", "elevation": 50, "lat": 21.0405006409, "lon": 105.8860015869, "tz": "Asia/Ho_Chi_Minh"},
    {"icao": "VVNB", "iata": "HAN", "name": "Noi Bai International Airport", "city": "Hanoi", "state": "Ha-N\u1ed9i", "country": "VN", "elevation": 39, "lat": 21.221200943, "lon": 105.8069992065, "tz": "Asia/Ho_Chi_Minh"},
    {"icao": "WA61", "iata": "", "name": "Thompson Airport", "city": "Kingston", "state": "Washington", "country": "US", "elevation": 50, "lat": 47.7983016968, "lon": -122.5299987793, "tz": "America/Los_Angeles"},
    {"icao": "WBSB", "iata": "BWN", "name": "Brunei International Airport", "city": "Bandar Seri Begawan", "state": "", "country": "BN", "elevation": 73, "lat": 4.9442000389, "lon": 114.9280014038, "tz": "Asia/Brunei"},
    {"icao": "WI54", "iata": "", "name": "Corinth Airport", "city": "Athens", "state": "", "country": "US", "elevation": 1425, "lat": 44.9994010925, "lon": -90.149597168, "tz": "America/Chicago"},
    {"icao": "WI55", "iata": "", "name": "Broken Prop Airport", "city": "Berlin", "state": "", "country": "US", "elevation": 767, "lat": 43.9860992432, "lon": -88.9834976196, "tz": "America/Chicago"},
    {"icao": "WI75", "iata": "", "name": "Bogus Creek Airport", "city": "Stockholm", "state": "Wisconsin", "country": "US", "elevation": 950, "lat": 44.4989013672, "lon": -92.2031021118, "tz": "America/Chicago"},
    {"icao": "WIHH", "iata": "HLP", "name": "Halim Perdanakusuma International Airport", "city": "Jakarta", "state": "Jakarta", "country": "ID", "elevation": 84, "lat": -6.2666101456, "lon": 106.8909988403, "tz": "Asia/Jakarta"},
    {"icao": "WIHP", "iata": "PCB", "name": "Pondok Cabe Air Base", "city": "Jakarta", "state": "", "country": "ID", "elevation": 200, "lat": -6.3369598389, "lon": 106.7649993896, "tz": "Asia/Jakarta"},
    {"icao": "WIII", "iata": "CGK", "name": "Soekarno-Hatta International Airport", "city": "Jakarta", "state": "", "country": "ID", "elevation": 34, "lat": -6.1255698204, "lon": 106.65599823, "tz": "Asia/Jakarta"},
    {"icao": "WMKF", "iata": "", "name": "Simpang Airport", "city": "Kuala Lumpur", "state": "", "country": "MY", "elevation": 111, "lat": 3.1122500896, "lon": 101.7030029297, "tz": "Asia/Kuala_Lumpur"},
    {"icao": "WMKK", "iata": "KUL", "name": "Kuala Lumpur International Airport", "city": "Kuala Lumpur", "state": "", "country": "MY", "elevation": 69, "lat": 2.745579958, "lon": 101.7099990845, "tz": "Asia/Kuala_Lumpur"},
    {"icao": "WPDL", "iata": "DIL", "name": "Presidente Nicolau Lobato International Airport", "city": "Dili", "state": "Dili", "country": "TL", "elevation": 154, "lat": -8.5464000702, "lon": 125.526000977, "tz": "Asia/Dili"},
    {"icao": "WSAC", "iata": "", "name": "Changi Air Base", "city": "Singapore", "state": "", "country": "SG", "elevation": 22, "lat": 1.3441400528, "lon": 104.009002686, "tz": "Asia/Singapore"},
    {"icao": "WSSS", "iata": "SIN", "name": "Singapore Changi International Airport", "city": "Singapore", "state": "North-East", "country": "SG", "elevation": 22, "lat": 1.3501900434, "lon": 103.9940032959, "tz": "Asia/Singapore"},
    {"icao": "WY07", "iata": "", "name": "Hardy Ranch Airport", "city": "Douglas", "state": "Wyoming", "country": "US", "elevation": 5077, "lat": 43.3251991272, "lon": -105.6760025024, "tz": "America/Denver"},
    {"icao": "WY27", "iata": "", "name": "Wagonhound Airport", "city": "Douglas", "state": "Wyoming", "country": "US", "elevation": 5470, "lat": 42.5867004395, "lon": -105.5380020142, "tz": "America/Denver"},
    {"icao": "WY66", "iata": "", "name": "Chamberlain Brothers Ranch Airport", "city": "Douglas", "state": "Wyoming", "country": "US", "elevation": 5237, "lat": 42.7522010803, "lon": -105.6200027466, "tz": "America/Denver"},
    {"icao": "XS30", "iata": "", "name": "Burress Airport", "city": "Paris", "state": "Texas", "country": "US", "elevation": 484, "lat": 33.6050987244, "lon": -95.4819030762, "tz": "America/Chicago"},
    {"icao": "XS88", "iata": "", "name": "Parson Field", "city": "Paris", "state": "Texas", "country": "US", "elevation": 475, "lat": 33.8573989868, "lon": -95.7048034668, "tz": "America/Chicago"},
    {"icao": "YJST", "iata": "", "name": "Hubert Wilkins Airstrip", "city": "Jamestown", "state": "South-Australia", "country": "AU", "elevation": 0, "lat": -33.1920845053, "lon": 138.615531921, "tz": "Australia/Adelaide"},
    {"icao": "YSCB", "iata": "CBR", "name": "Canberra International Airport", "city": "Canberra", "state": "ACT", "country": "AU", "elevation": 1886, "lat": -35.3069000244, "lon": 149.1950073242, "tz": "Australia/Sydney"},
    {"icao": "ZBAA", "iata": "PEK", "name": "Beijing Capital International Airport", "city": "Beijing", "state": "Beijing", "country": "CN", "elevation": 116, "lat": 40.0801010132, "lon": 116.5849990845, "tz": "Asia/Shanghai"},
    {"icao": "ZBBB", "iata": "", "name": "Beijing Xijiao Airport", "city": "Beijing", "state": "Beijing", "country": "CN", "elevation": 0, "lat": 39.9608001709, "lon": 116.2570037842, "tz": "Asia/Shanghai"},
    {"icao": "ZBNY", "iata": "NAY", "name": "Beijing Nanyuan Airport", "city": "Beijing", "state": "Beijing", "country": "CN", "elevation": 0, "lat": 39.7827987671, "lon": 116.3880004883, "tz": "Asia/Shanghai"},
    {"icao": "ZKPY", "iata": "FNJ", "name": "Sunan International Airport", "city": "Pyongyang", "state": "South-Pyongan", "country": "KP", "elevation": 117, "lat": 39.2240982056, "lon": 125.6699981689, "tz": "Asia/Pyongyang"}]